{
  "locations": [
    {
      "id": 1,
      "name": "מדטון קמעונאות בע\"מ - סניף חולון",
      "address": "סוקולוב 86 א, חולון",
      "city": "חולון",
      "type": "store",
      "chain": "other",
      "lat": 32.022477,
      "lng": 34.778635,
      "hours": "בדוק באתר"
    },
    {
      "id": 2,
      "name": "תחנת דלק סונול סו גוד שדה עמודים",
      "address": "כביש 65 (עילבון - נוג'דת) ., מצפה נטופה",
      "city": "מצפה נטופה",
      "type": "store",
      "chain": "other",
      "lat": 32.820842,
      "lng": 35.407709,
      "hours": "בדוק באתר"
    },
    {
      "id": 3,
      "name": "ירושלים - ביה\"ס תדהר- מוקד איסוף",
      "address": "יוסי בן יועזר 24 0, ירושלים",
      "city": "ירושלים",
      "type": "store",
      "chain": "other",
      "lat": 31.755123,
      "lng": 35.206629,
      "hours": "בדוק באתר"
    },
    {
      "id": 4,
      "name": "ביג אלקטריק - סניף תל חנן - נשר",
      "address": "מתחם שמי בר 0, נשר",
      "city": "נשר",
      "type": "store",
      "chain": "other",
      "lat": 32.77923,
      "lng": 35.04031,
      "hours": "בדוק באתר"
    },
    {
      "id": 5,
      "name": "ביג אלקטריק - סניף נהריה",
      "address": "מתחם חמאד סנטר - מזרעה 0, נהריה",
      "city": "נהריה",
      "type": "store",
      "chain": "other",
      "lat": 32.98755,
      "lng": 35.0962,
      "hours": "בדוק באתר"
    },
    {
      "id": 6,
      "name": "רשות מקומית - מוקד איסוף",
      "address": "הדקל תל מונד 0, קדימה",
      "city": "קדימה",
      "type": "store",
      "chain": "other",
      "lat": 32.256067,
      "lng": 34.920551,
      "hours": "בדוק באתר"
    },
    {
      "id": 7,
      "name": "אשדוד - רשות מקומית - מוקד איסוף - מנהלת התחדשות עירונית",
      "address": "האורגים 11, אשדוד",
      "city": "אשדוד",
      "type": "store",
      "chain": "other",
      "lat": 31.811224,
      "lng": 34.660485,
      "hours": "בדוק באתר"
    },
    {
      "id": 8,
      "name": "קרביץ",
      "address": "הרצל 60, נתניה",
      "city": "נתניה",
      "type": "store",
      "chain": "other",
      "lat": 32.325917,
      "lng": 34.861499,
      "hours": "בדוק באתר"
    },
    {
      "id": 9,
      "name": "רשות מקומית - מוקד איסוף",
      "address": "יהודה בורלא 31, תל אביב",
      "city": "תל אביב",
      "type": "store",
      "chain": "other",
      "lat": 32.109007,
      "lng": 34.790243,
      "hours": "בדוק באתר"
    },
    {
      "id": 10,
      "name": "רשות מקומית - מוקד איסוף",
      "address": "אבא קובנר 16, תל אביב",
      "city": "תל אביב",
      "type": "store",
      "chain": "other",
      "lat": 32.101708,
      "lng": 34.78596,
      "hours": "בדוק באתר"
    },
    {
      "id": 11,
      "name": "רשות מקומית - מוקד איסוף",
      "address": "נחלת יצחק 35, תל אביב",
      "city": "תל אביב",
      "type": "store",
      "chain": "other",
      "lat": 32.074184,
      "lng": 34.8004,
      "hours": "בדוק באתר"
    },
    {
      "id": 12,
      "name": "רשות מקומית - מוקד איסוף",
      "address": "מח\"ל 40, תל אביב",
      "city": "תל אביב",
      "type": "store",
      "chain": "other",
      "lat": 32.04913,
      "lng": 34.805884,
      "hours": "בדוק באתר"
    },
    {
      "id": 13,
      "name": "Collection Point",
      "address": "Unknown",
      "city": "Unknown",
      "type": "store",
      "chain": "other",
      "lat": 32.075393595745155,
      "lng": 34.77641647652293,
      "hours": "בדוק באתר"
    },
    {
      "id": 14,
      "name": "Collection Point",
      "address": "Unknown",
      "city": "Unknown",
      "type": "store",
      "chain": "other",
      "lat": 32.07855942047148,
      "lng": 34.82539044555083,
      "hours": "בדוק באתר"
    },
    {
      "id": 15,
      "name": "Collection Point",
      "address": "Unknown",
      "city": "Unknown",
      "type": "store",
      "chain": "other",
      "lat": 32.11463261764833,
      "lng": 34.79122011700797,
      "hours": "בדוק באתר"
    },
    {
      "id": 16,
      "name": "Collection Point",
      "address": "Unknown",
      "city": "Unknown",
      "type": "store",
      "chain": "other",
      "lat": 32.10021239977724,
      "lng": 34.788909391269996,
      "hours": "בדוק באתר"
    },
    {
      "id": 17,
      "name": "Collection Point",
      "address": "Unknown",
      "city": "Unknown",
      "type": "store",
      "chain": "other",
      "lat": 32.09767061806771,
      "lng": 34.79867630535719,
      "hours": "בדוק באתר"
    },
    {
      "id": 18,
      "name": "Collection Point",
      "address": "Unknown",
      "city": "Unknown",
      "type": "store",
      "chain": "other",
      "lat": 32.09444556069859,
      "lng": 34.79277953050392,
      "hours": "בדוק באתר"
    },
    {
      "id": 19,
      "name": "Collection Point",
      "address": "Unknown",
      "city": "Unknown",
      "type": "store",
      "chain": "other",
      "lat": 32.12551875153411,
      "lng": 34.79852650535623,
      "hours": "בדוק באתר"
    },
    {
      "id": 20,
      "name": "Collection Point",
      "address": "Unknown",
      "city": "Unknown",
      "type": "store",
      "chain": "other",
      "lat": 32.07703268402254,
      "lng": 34.77147969324717,
      "hours": "בדוק באתר"
    },
    {
      "id": 21,
      "name": "Collection Point",
      "address": "Unknown",
      "city": "Unknown",
      "type": "store",
      "chain": "other",
      "lat": 32.05646623338545,
      "lng": 34.76971560351421,
      "hours": "בדוק באתר"
    },
    {
      "id": 22,
      "name": "Collection Point",
      "address": "Unknown",
      "city": "Unknown",
      "type": "store",
      "chain": "other",
      "lat": 32.18199738453239,
      "lng": 34.86295731288882,
      "hours": "בדוק באתר"
    },
    {
      "id": 23,
      "name": "Collection Point",
      "address": "Unknown",
      "city": "Unknown",
      "type": "store",
      "chain": "other",
      "lat": 32.491054126483085,
      "lng": 34.91963471875864,
      "hours": "בדוק באתר"
    },
    {
      "id": 24,
      "name": "Collection Point",
      "address": "Unknown",
      "city": "Unknown",
      "type": "store",
      "chain": "other",
      "lat": 32.33598040569345,
      "lng": 35.01271507467095,
      "hours": "בדוק באתר"
    },
    {
      "id": 25,
      "name": "Collection Point",
      "address": "Unknown",
      "city": "Unknown",
      "type": "store",
      "chain": "other",
      "lat": 32.04963646085487,
      "lng": 34.87557839479387,
      "hours": "בדוק באתר"
    },
    {
      "id": 26,
      "name": "Collection Point",
      "address": "Unknown",
      "city": "Unknown",
      "type": "store",
      "chain": "other",
      "lat": 32.614815240578594,
      "lng": 35.31020311699255,
      "hours": "בדוק באתר"
    },
    {
      "id": 27,
      "name": "Collection Point",
      "address": "Unknown",
      "city": "Unknown",
      "type": "store",
      "chain": "other",
      "lat": 32.767203292971075,
      "lng": 35.01335063232741,
      "hours": "בדוק באתר"
    },
    {
      "id": 28,
      "name": "Collection Point",
      "address": "Unknown",
      "city": "Unknown",
      "type": "store",
      "chain": "other",
      "lat": 32.82397624290857,
      "lng": 35.08154106201543,
      "hours": "בדוק באתר"
    },
    {
      "id": 29,
      "name": "Collection Point",
      "address": "Unknown",
      "city": "Unknown",
      "type": "store",
      "chain": "other",
      "lat": 32.77407195530811,
      "lng": 35.03015231883182,
      "hours": "בדוק באתר"
    },
    {
      "id": 30,
      "name": "Collection Point",
      "address": "Unknown",
      "city": "Unknown",
      "type": "store",
      "chain": "other",
      "lat": 32.792686192828484,
      "lng": 34.98785240164765,
      "hours": "בדוק באתר"
    },
    {
      "id": 31,
      "name": "Collection Point",
      "address": "Unknown",
      "city": "Unknown",
      "type": "store",
      "chain": "other",
      "lat": 32.78023501046274,
      "lng": 34.985140707197104,
      "hours": "בדוק באתר"
    },
    {
      "id": 32,
      "name": "Collection Point",
      "address": "Unknown",
      "city": "Unknown",
      "type": "store",
      "chain": "other",
      "lat": 32.51744065164407,
      "lng": 35.00654453233514,
      "hours": "בדוק באתר"
    },
    {
      "id": 33,
      "name": "Collection Point",
      "address": "Unknown",
      "city": "Unknown",
      "type": "store",
      "chain": "other",
      "lat": 32.27375516141874,
      "lng": 34.874004777559975,
      "hours": "בדוק באתר"
    },
    {
      "id": 34,
      "name": "Collection Point",
      "address": "Unknown",
      "city": "Unknown",
      "type": "store",
      "chain": "other",
      "lat": 32.7148959087736,
      "lng": 35.125220503494056,
      "hours": "בדוק באתר"
    },
    {
      "id": 35,
      "name": "Collection Point",
      "address": "Unknown",
      "city": "Unknown",
      "type": "store",
      "chain": "other",
      "lat": 32.81610012377016,
      "lng": 34.97770867281189,
      "hours": "בדוק באתר"
    },
    {
      "id": 36,
      "name": "Collection Point",
      "address": "Unknown",
      "city": "Unknown",
      "type": "store",
      "chain": "other",
      "lat": 32.56723426883716,
      "lng": 34.96373403233352,
      "hours": "בדוק באתר"
    },
    {
      "id": 37,
      "name": "Collection Point",
      "address": "Unknown",
      "city": "Unknown",
      "type": "store",
      "chain": "other",
      "lat": 32.76628957345333,
      "lng": 34.964078788152904,
      "hours": "בדוק באתר"
    },
    {
      "id": 38,
      "name": "Collection Point",
      "address": "Unknown",
      "city": "Unknown",
      "type": "store",
      "chain": "other",
      "lat": 32.462669647514865,
      "lng": 35.046431244290936,
      "hours": "בדוק באתר"
    },
    {
      "id": 39,
      "name": "Collection Point",
      "address": "Unknown",
      "city": "Unknown",
      "type": "store",
      "chain": "other",
      "lat": 32.30026257966853,
      "lng": 34.909001635223674,
      "hours": "בדוק באתר"
    },
    {
      "id": 40,
      "name": "Collection Point",
      "address": "Unknown",
      "city": "Unknown",
      "type": "store",
      "chain": "other",
      "lat": 32.45952989036566,
      "lng": 35.04462590315807,
      "hours": "בדוק באתר"
    },
    {
      "id": 41,
      "name": "Collection Point",
      "address": "Unknown",
      "city": "Unknown",
      "type": "store",
      "chain": "other",
      "lat": 32.467170471832716,
      "lng": 35.04139647466679,
      "hours": "בדוק באתר"
    },
    {
      "id": 42,
      "name": "Collection Point",
      "address": "Unknown",
      "city": "Unknown",
      "type": "store",
      "chain": "other",
      "lat": 29.56008652844051,
      "lng": 34.95056857928912,
      "hours": "בדוק באתר"
    },
    {
      "id": 43,
      "name": "Collection Point",
      "address": "Unknown",
      "city": "Unknown",
      "type": "store",
      "chain": "other",
      "lat": 31.265856129259564,
      "lng": 34.763451390042675,
      "hours": "בדוק באתר"
    },
    {
      "id": 44,
      "name": "Collection Point",
      "address": "Unknown",
      "city": "Unknown",
      "type": "store",
      "chain": "other",
      "lat": 31.28277350020661,
      "lng": 34.79925408819787,
      "hours": "בדוק באתר"
    },
    {
      "id": 45,
      "name": "Collection Point",
      "address": "Unknown",
      "city": "Unknown",
      "type": "store",
      "chain": "other",
      "lat": 29.56435554655136,
      "lng": 34.94558902231878,
      "hours": "בדוק באתר"
    },
    {
      "id": 46,
      "name": "Collection Point",
      "address": "Unknown",
      "city": "Unknown",
      "type": "store",
      "chain": "other",
      "lat": 30.98848113733735,
      "lng": 34.92713775752765,
      "hours": "בדוק באתר"
    },
    {
      "id": 47,
      "name": "Collection Point",
      "address": "Unknown",
      "city": "Unknown",
      "type": "store",
      "chain": "other",
      "lat": 31.074469569719188,
      "lng": 35.03237100354367,
      "hours": "בדוק באתר"
    },
    {
      "id": 48,
      "name": "Collection Point",
      "address": "Unknown",
      "city": "Unknown",
      "type": "store",
      "chain": "other",
      "lat": 30.61292817828348,
      "lng": 34.8023753593827,
      "hours": "בדוק באתר"
    },
    {
      "id": 49,
      "name": "Collection Point",
      "address": "Unknown",
      "city": "Unknown",
      "type": "store",
      "chain": "other",
      "lat": 31.259992470540936,
      "lng": 35.20879648819866,
      "hours": "בדוק באתר"
    },
    {
      "id": 50,
      "name": "Collection Point",
      "address": "Unknown",
      "city": "Unknown",
      "type": "store",
      "chain": "other",
      "lat": 31.248467966436028,
      "lng": 35.19607272441055,
      "hours": "בדוק באתר"
    },
    {
      "id": 51,
      "name": "Collection Point",
      "address": "Unknown",
      "city": "Unknown",
      "type": "store",
      "chain": "other",
      "lat": 29.56854567444839,
      "lng": 34.95972663581332,
      "hours": "בדוק באתר"
    },
    {
      "id": 52,
      "name": "Collection Point",
      "address": "Unknown",
      "city": "Unknown",
      "type": "store",
      "chain": "other",
      "lat": 31.23096945198517,
      "lng": 34.82310093237389,
      "hours": "בדוק באתר"
    },
    {
      "id": 53,
      "name": "Collection Point",
      "address": "Unknown",
      "city": "Unknown",
      "type": "store",
      "chain": "other",
      "lat": 31.25446932848937,
      "lng": 34.814792777785456,
      "hours": "בדוק באתר"
    },
    {
      "id": 54,
      "name": "Collection Point",
      "address": "Unknown",
      "city": "Unknown",
      "type": "store",
      "chain": "other",
      "lat": 31.687655174535767,
      "lng": 34.57923107653465,
      "hours": "בדוק באתר"
    },
    {
      "id": 55,
      "name": "Collection Point",
      "address": "Unknown",
      "city": "Unknown",
      "type": "store",
      "chain": "other",
      "lat": 31.818201455780983,
      "lng": 34.66220850352146,
      "hours": "בדוק באתר"
    },
    {
      "id": 56,
      "name": "Collection Point",
      "address": "Unknown",
      "city": "Unknown",
      "type": "store",
      "chain": "other",
      "lat": 31.31844768161946,
      "lng": 34.62537762194577,
      "hours": "בדוק באתר"
    },
    {
      "id": 57,
      "name": "קולומביה",
      "address": "תל אביב",
      "city": "תל אביב",
      "type": "store",
      "chain": "other",
      "lat": 32.09797777547094,
      "lng": 34.772822986028714,
      "hours": "בדוק באתר"
    },
    {
      "id": 58,
      "name": "קולומביה",
      "address": "אינשטיין 40, תל אביב",
      "city": "תל אביב",
      "type": "store",
      "chain": "other",
      "lat": 32.11234322943488,
      "lng": 34.7960486137839,
      "hours": "בדוק באתר"
    },
    {
      "id": 59,
      "name": "קולומביה",
      "address": "רעננה",
      "city": "רעננה",
      "type": "store",
      "chain": "other",
      "lat": 32.19677448211769,
      "lng": 34.87958690028805,
      "hours": "בדוק באתר"
    },
    {
      "id": 60,
      "name": "קולומביה",
      "address": "חשמונאים 113, תל אביב",
      "city": "תל אביב",
      "type": "store",
      "chain": "other",
      "lat": 32.06975947247529,
      "lng": 34.78540497145522,
      "hours": "בדוק באתר"
    },
    {
      "id": 61,
      "name": "קולומביה",
      "address": "רמת גן",
      "city": "רמת גן",
      "type": "store",
      "chain": "other",
      "lat": 32.10025045839778,
      "lng": 34.826433215413985,
      "hours": "בדוק באתר"
    },
    {
      "id": 62,
      "name": "קולומביה",
      "address": "ראשון לציון",
      "city": "ראשון לציון",
      "type": "store",
      "chain": "other",
      "lat": 31.949552809831694,
      "lng": 34.80304650213872,
      "hours": "בדוק באתר"
    },
    {
      "id": 63,
      "name": "קולומביה",
      "address": "רחובות",
      "city": "רחובות",
      "type": "store",
      "chain": "other",
      "lat": 31.893397872608,
      "lng": 34.80688857515092,
      "hours": "בדוק באתר"
    },
    {
      "id": 64,
      "name": "קולומביה",
      "address": "דוד סחרוב 21, ראשון לציון",
      "city": "ראשון לציון",
      "type": "store",
      "chain": "other",
      "lat": 31.991647264705957,
      "lng": 34.77419908679737,
      "hours": "בדוק באתר"
    },
    {
      "id": 65,
      "name": "קולומביה",
      "address": "ראשון לציון",
      "city": "ראשון לציון",
      "type": "store",
      "chain": "other",
      "lat": 31.983474183783382,
      "lng": 34.77122707494333,
      "hours": "בדוק באתר"
    },
    {
      "id": 66,
      "name": "קולומביה",
      "address": "קריית ביאליק",
      "city": "קריית ביאליק",
      "type": "store",
      "chain": "other",
      "lat": 32.84279326029087,
      "lng": 35.089029188415566,
      "hours": "בדוק באתר"
    },
    {
      "id": 67,
      "name": "קולומביה",
      "address": "צומת מגדל",
      "city": "צומת מגדל",
      "type": "store",
      "chain": "other",
      "lat": 32.73680847448257,
      "lng": 35.20979748574013,
      "hours": "בדוק באתר"
    },
    {
      "id": 68,
      "name": "קולומביה",
      "address": "צומת כח",
      "city": "צומת כח",
      "type": "store",
      "chain": "other",
      "lat": 32.73472862911824,
      "lng": 35.20931418863067,
      "hours": "בדוק באתר"
    },
    {
      "id": 69,
      "name": "קולומביה",
      "address": "שבילים, צומת זרזיר",
      "city": "צומת זרזיר",
      "type": "store",
      "chain": "other",
      "lat": 32.73462033005835,
      "lng": 35.209153256102844,
      "hours": "בדוק באתר"
    },
    {
      "id": 70,
      "name": "קולומביה",
      "address": "קלחים",
      "city": "קלחים",
      "type": "store",
      "chain": "other",
      "lat": 31.448497946121677,
      "lng": 34.68000074344967,
      "hours": "בדוק באתר"
    },
    {
      "id": 71,
      "name": "קולומביה",
      "address": "קריית אתא",
      "city": "קריית אתא",
      "type": "store",
      "chain": "other",
      "lat": 32.80780493133609,
      "lng": 35.07711715794788,
      "hours": "בדוק באתר"
    },
    {
      "id": 72,
      "name": "קולומביה",
      "address": "עין שמר",
      "city": "עין שמר",
      "type": "store",
      "chain": "other",
      "lat": 32.46228692248634,
      "lng": 35.00693658712168,
      "hours": "בדוק באתר"
    },
    {
      "id": 73,
      "name": "קולומביה",
      "address": "פתח תקווה",
      "city": "פתח תקווה",
      "type": "store",
      "chain": "other",
      "lat": 32.09348895626469,
      "lng": 34.86526227145487,
      "hours": "בדוק באתר"
    },
    {
      "id": 74,
      "name": "קולומביה",
      "address": "נצרת",
      "city": "נצרת",
      "type": "store",
      "chain": "other",
      "lat": 32.694028519410075,
      "lng": 35.30362183096112,
      "hours": "בדוק באתר"
    },
    {
      "id": 75,
      "name": "קולומביה",
      "address": "נתניה",
      "city": "נתניה",
      "type": "store",
      "chain": "other",
      "lat": 32.28153327942675,
      "lng": 34.86140845852742,
      "hours": "בדוק באתר"
    },
    {
      "id": 76,
      "name": "קולומביה",
      "address": "בני ברמן 2, נתניה",
      "city": "נתניה",
      "type": "store",
      "chain": "other",
      "lat": 32.279351208411576,
      "lng": 34.84706885980345,
      "hours": "בדוק באתר"
    },
    {
      "id": 77,
      "name": "קולומביה",
      "address": "מחלף רופין",
      "city": "מחלף רופין",
      "type": "store",
      "chain": "other",
      "lat": 32.35142826983327,
      "lng": 34.906521865223596,
      "hours": "בדוק באתר"
    },
    {
      "id": 78,
      "name": "קולומביה",
      "address": "מחלף M הדרך",
      "city": "מחלף M הדרך",
      "type": "store",
      "chain": "other",
      "lat": 32.38585090503933,
      "lng": 34.867497988330925,
      "hours": "בדוק באתר"
    },
    {
      "id": 79,
      "name": "קולומביה",
      "address": "לוד איירפורט",
      "city": "לוד איירפורט",
      "type": "store",
      "chain": "other",
      "lat": 31.987638352734987,
      "lng": 34.914191585806215,
      "hours": "בדוק באתר"
    },
    {
      "id": 80,
      "name": "קולומביה",
      "address": "שדרות בן גוריון 2, מצפה רמון",
      "city": "מצפה רמון",
      "type": "store",
      "chain": "other",
      "lat": 30.61272165211073,
      "lng": 34.802710744490824,
      "hours": "בדוק באתר"
    },
    {
      "id": 81,
      "name": "קולומביה",
      "address": "מעלות תרשיחא",
      "city": "מעלות תרשיחא",
      "type": "store",
      "chain": "other",
      "lat": 33.020509302534904,
      "lng": 35.28090143095531,
      "hours": "בדוק באתר"
    },
    {
      "id": 82,
      "name": "קולומביה",
      "address": "התבור, לוד",
      "city": "לוד",
      "type": "store",
      "chain": "other",
      "lat": 31.990341273183155,
      "lng": 34.90921916897042,
      "hours": "בדוק באתר"
    },
    {
      "id": 83,
      "name": "קולומביה",
      "address": "מודיעין",
      "city": "מודיעין",
      "type": "store",
      "chain": "other",
      "lat": 31.899899475815467,
      "lng": 35.00841104284834,
      "hours": "בדוק באתר"
    },
    {
      "id": 84,
      "name": "קולומביה",
      "address": "צומת דבירה- שבילים, להבים",
      "city": "להבים",
      "type": "store",
      "chain": "other",
      "lat": 31.4224740898471,
      "lng": 34.7862973751589,
      "hours": "בדוק באתר"
    },
    {
      "id": 85,
      "name": "קולומביה",
      "address": "כפר סבא",
      "city": "כפר סבא",
      "type": "store",
      "chain": "other",
      "lat": 32.172077577197165,
      "lng": 34.928084573299664,
      "hours": "בדוק באתר"
    },
    {
      "id": 86,
      "name": "קולומביה",
      "address": "ירושלים",
      "city": "ירושלים",
      "type": "store",
      "chain": "other",
      "lat": 31.751744359513502,
      "lng": 35.18726655960312,
      "hours": "בדוק באתר"
    },
    {
      "id": 87,
      "name": "קולומביה",
      "address": "ירושלים",
      "city": "ירושלים",
      "type": "store",
      "chain": "other",
      "lat": 31.7856663571413,
      "lng": 35.20967639844896,
      "hours": "בדוק באתר"
    },
    {
      "id": 88,
      "name": "קולומביה",
      "address": "ים המלח",
      "city": "ים המלח",
      "type": "store",
      "chain": "other",
      "lat": 31.199489581519906,
      "lng": 35.364116986525666,
      "hours": "בדוק באתר"
    },
    {
      "id": 89,
      "name": "קולומביה",
      "address": "ירושלים",
      "city": "ירושלים",
      "type": "store",
      "chain": "other",
      "lat": 31.77754809294777,
      "lng": 35.22445768367856,
      "hours": "בדוק באתר"
    },
    {
      "id": 90,
      "name": "קולומביה",
      "address": "חוצות המפרץ",
      "city": "חוצות המפרץ",
      "type": "store",
      "chain": "other",
      "lat": 32.80873643215765,
      "lng": 35.05413349207492,
      "hours": "בדוק באתר"
    },
    {
      "id": 91,
      "name": "קולומביה",
      "address": "דרך שמחה גולן 54, חיפה",
      "city": "חיפה",
      "type": "store",
      "chain": "other",
      "lat": 32.789716335754356,
      "lng": 35.00787525553167,
      "hours": "בדוק באתר"
    },
    {
      "id": 92,
      "name": "קולומביה",
      "address": "דיר אל אסאד",
      "city": "דיר אל אסאד",
      "type": "store",
      "chain": "other",
      "lat": 32.92586797137838,
      "lng": 35.27663324433234,
      "hours": "בדוק באתר"
    },
    {
      "id": 93,
      "name": "קולומביה",
      "address": "זיכרון יעקב",
      "city": "זיכרון יעקב",
      "type": "store",
      "chain": "other",
      "lat": 32.569493146474684,
      "lng": 34.93338500212801,
      "hours": "בדוק באתר"
    },
    {
      "id": 94,
      "name": "קולומביה",
      "address": "אבן אבן 12, הרצליה",
      "city": "הרצליה",
      "type": "store",
      "chain": "other",
      "lat": 32.16206476542855,
      "lng": 34.80809642912393,
      "hours": "בדוק באתר"
    },
    {
      "id": 95,
      "name": "קולומביה",
      "address": "מבקיעים, אשקלון",
      "city": "אשקלון",
      "type": "store",
      "chain": "other",
      "lat": 31.627132653629964,
      "lng": 34.58362005796844,
      "hours": "בדוק באתר"
    },
    {
      "id": 96,
      "name": "קולומביה",
      "address": "שדרות דוד טוביהו 125, באר שבע",
      "city": "באר שבע",
      "type": "store",
      "chain": "other",
      "lat": 31.25051723612008,
      "lng": 34.77167995797463,
      "hours": "בדוק באתר"
    },
    {
      "id": 97,
      "name": "קולומביה",
      "address": "שדרות התמרים 21, אילת",
      "city": "אילת",
      "type": "store",
      "chain": "other",
      "lat": 29.556444770697947,
      "lng": 34.95177539033908,
      "hours": "בדוק באתר"
    },
    {
      "id": 98,
      "name": "קולומביה",
      "address": "אום אל פאחם",
      "city": "אום אל פאחם",
      "type": "store",
      "chain": "other",
      "lat": 32.53420197491518,
      "lng": 35.148847471447056,
      "hours": "בדוק באתר"
    },
    {
      "id": 99,
      "name": "קולומביה",
      "address": "ביג אילת, אילת",
      "city": "אילת",
      "type": "store",
      "chain": "other",
      "lat": 29.566677844283415,
      "lng": 34.959631886837215,
      "hours": "בדוק באתר"
    },
    {
      "id": 100,
      "name": "אייס קנה ובנה",
      "address": "אשקלון",
      "city": "אשקלון",
      "type": "store",
      "chain": "other",
      "lat": 31.62714635668766,
      "lng": 34.583416210423785,
      "hours": "בדוק באתר"
    },
    {
      "id": 101,
      "name": "ארכה",
      "address": "Unknown",
      "city": "Unknown",
      "type": "store",
      "chain": "other",
      "lat": 32.17468427065279,
      "lng": 34.93198033135255,
      "hours": "בדוק באתר"
    },
    {
      "id": 102,
      "name": "תל אביב - רשות מקומית - מרכז איסוף - מוקד איסוף - תחנת תברואה לב העיר",
      "address": "המלך ג'ורג' 33, תל אביב",
      "city": "תל אביב",
      "type": "store",
      "chain": "other",
      "lat": 32.07211,
      "lng": 34.773407,
      "hours": "בדוק באתר"
    },
    {
      "id": 103,
      "name": "תל אביב - רשות מקומית - מרכז איסוף - מוקד איסוף - תחנת תברואה גן מאיר - המלך ג'ורג' 35 ב'",
      "address": "המלך ג'ורג' 35 ב', תל אביב",
      "city": "תל אביב",
      "type": "store",
      "chain": "other",
      "lat": 32.073032,
      "lng": 34.77392,
      "hours": "בדוק באתר"
    },
    {
      "id": 104,
      "name": "תל אביב - רשות מקומית - מרכז איסוף - מוקד איסוף - תחנת תברואה יסוד המעלה - י.ל. פרץ 6",
      "address": "בעל העקידה 32, תל אביב",
      "city": "תל אביב",
      "type": "store",
      "chain": "other",
      "lat": 32.059818,
      "lng": 34.774264,
      "hours": "בדוק באתר"
    },
    {
      "id": 105,
      "name": "תל אביב - רשות מקומית - מרכז איסוף - מוקד איסוף - תחנת תברואה שפירא - בעל העקידה 32",
      "address": "בעל העקידה 32, תל אביב",
      "city": "תל אביב",
      "type": "store",
      "chain": "other",
      "lat": 32.052294,
      "lng": 34.778648,
      "hours": "בדוק באתר"
    },
    {
      "id": 106,
      "name": "תל אביב - רשות מקומית - מרכז איסוף - מוקד איסוף - תחנת תברואה התקווה - רשף 20",
      "address": "רשף 20, תל אביב",
      "city": "תל אביב",
      "type": "store",
      "chain": "other",
      "lat": 32.053134,
      "lng": 34.794083,
      "hours": "בדוק באתר"
    },
    {
      "id": 107,
      "name": "תל אביב - רשות מקומית - מרכז איסוף - מוקד איסוף -תחנת תברואה כפר שלם - מנחם מדמון 3",
      "address": "מנחם מדמון 3, תל אביב",
      "city": "תל אביב",
      "type": "store",
      "chain": "other",
      "lat": 32.050302,
      "lng": 34.805132,
      "hours": "בדוק באתר"
    },
    {
      "id": 108,
      "name": "תל אביב - רשות מקומית - מרכז איסוף - מוקד איסוף - תחנת תברואה יגאל אלון - קרמנצקי 12",
      "address": "קרמנצקי 12, תל אביב",
      "city": "תל אביב",
      "type": "store",
      "chain": "other",
      "lat": 32.066628,
      "lng": 34.794959,
      "hours": "בדוק באתר"
    },
    {
      "id": 109,
      "name": "תל אביב - רשות מקומית - מרכז איסוף - מוקד איסוף - תחנת תברואה - הכרמל 18",
      "address": "הכרמל 18, תל אביב",
      "city": "תל אביב",
      "type": "store",
      "chain": "other",
      "lat": 32.0668,
      "lng": 34.76688,
      "hours": "בדוק באתר"
    },
    {
      "id": 110,
      "name": "תל אביב - רשות מקומית - מרכז איסוף - מוקד איסוף - תחנת תברואה איילון",
      "address": "אלישברג 9, תל אביב",
      "city": "תל אביב",
      "type": "store",
      "chain": "other",
      "lat": 32.062764,
      "lng": 34.781334,
      "hours": "בדוק באתר"
    },
    {
      "id": 111,
      "name": "באג",
      "address": "לב העיר 2, מודיעין",
      "city": "מודיעין",
      "type": "store",
      "chain": "other",
      "lat": 31.899866,
      "lng": 35.00825,
      "hours": "בדוק באתר"
    },
    {
      "id": 112,
      "name": "Collection Point",
      "address": "Unknown",
      "city": "Unknown",
      "type": "store",
      "chain": "other",
      "lat": 32.928174121088745,
      "lng": 35.3260552620126,
      "hours": "בדוק באתר"
    },
    {
      "id": 113,
      "name": "רשות מקומית - מוקד איסוף",
      "address": "קהילת שיקגו 1, פתח תקווה",
      "city": "פתח תקווה",
      "type": "store",
      "chain": "other",
      "lat": 32.073289,
      "lng": 34.909599,
      "hours": "בדוק באתר"
    },
    {
      "id": 114,
      "name": "Collection Point",
      "address": "Unknown",
      "city": "Unknown",
      "type": "store",
      "chain": "other",
      "lat": 32.11826026618414,
      "lng": 34.797543077334836,
      "hours": "בדוק באתר"
    },
    {
      "id": 115,
      "name": "Collection Point",
      "address": "Unknown",
      "city": "Unknown",
      "type": "store",
      "chain": "other",
      "lat": 32.06695502836114,
      "lng": 34.82859309787662,
      "hours": "בדוק באתר"
    },
    {
      "id": 116,
      "name": "Collection Point",
      "address": "Unknown",
      "city": "Unknown",
      "type": "store",
      "chain": "other",
      "lat": 32.061455783728945,
      "lng": 34.81173535915636,
      "hours": "בדוק באתר"
    },
    {
      "id": 117,
      "name": "Collection Point",
      "address": "Unknown",
      "city": "Unknown",
      "type": "store",
      "chain": "other",
      "lat": 32.09329678900526,
      "lng": 34.783224922870126,
      "hours": "בדוק באתר"
    },
    {
      "id": 118,
      "name": "Collection Point",
      "address": "Unknown",
      "city": "Unknown",
      "type": "store",
      "chain": "other",
      "lat": 32.053261119763825,
      "lng": 34.80449900352465,
      "hours": "בדוק באתר"
    },
    {
      "id": 119,
      "name": "Collection Point",
      "address": "Unknown",
      "city": "Unknown",
      "type": "store",
      "chain": "other",
      "lat": 32.10175144377627,
      "lng": 34.78923132927288,
      "hours": "בדוק באתר"
    },
    {
      "id": 120,
      "name": "Collection Point",
      "address": "Unknown",
      "city": "Unknown",
      "type": "store",
      "chain": "other",
      "lat": 32.071719928775956,
      "lng": 34.77992921886485,
      "hours": "בדוק באתר"
    },
    {
      "id": 121,
      "name": "Collection Point",
      "address": "Unknown",
      "city": "Unknown",
      "type": "store",
      "chain": "other",
      "lat": 32.07556770265233,
      "lng": 34.80376400674722,
      "hours": "בדוק באתר"
    },
    {
      "id": 122,
      "name": "Collection Point",
      "address": "Unknown",
      "city": "Unknown",
      "type": "store",
      "chain": "other",
      "lat": 32.12716605925709,
      "lng": 34.83004866905838,
      "hours": "בדוק באתר"
    },
    {
      "id": 123,
      "name": "Collection Point",
      "address": "Unknown",
      "city": "Unknown",
      "type": "store",
      "chain": "other",
      "lat": 32.05102829415939,
      "lng": 34.753842392644756,
      "hours": "בדוק באתר"
    },
    {
      "id": 124,
      "name": "Collection Point",
      "address": "Unknown",
      "city": "Unknown",
      "type": "store",
      "chain": "other",
      "lat": 32.077365210896325,
      "lng": 34.824712144366536,
      "hours": "בדוק באתר"
    },
    {
      "id": 125,
      "name": "Collection Point",
      "address": "Unknown",
      "city": "Unknown",
      "type": "store",
      "chain": "other",
      "lat": 32.12094321106153,
      "lng": 34.792835947686726,
      "hours": "בדוק באתר"
    },
    {
      "id": 126,
      "name": "Collection Point",
      "address": "Unknown",
      "city": "Unknown",
      "type": "store",
      "chain": "other",
      "lat": 32.17500247364186,
      "lng": 34.905708006417036,
      "hours": "בדוק באתר"
    },
    {
      "id": 127,
      "name": "Collection Point",
      "address": "Unknown",
      "city": "Unknown",
      "type": "store",
      "chain": "other",
      "lat": 32.06307070113744,
      "lng": 34.84412040577311,
      "hours": "בדוק באתר"
    },
    {
      "id": 128,
      "name": "Collection Point",
      "address": "Unknown",
      "city": "Unknown",
      "type": "store",
      "chain": "other",
      "lat": 32.184478778423795,
      "lng": 34.92967706118013,
      "hours": "בדוק באתר"
    },
    {
      "id": 129,
      "name": "Collection Point",
      "address": "Unknown",
      "city": "Unknown",
      "type": "store",
      "chain": "other",
      "lat": 32.053881352053786,
      "lng": 34.85854675933987,
      "hours": "בדוק באתר"
    },
    {
      "id": 130,
      "name": "Collection Point",
      "address": "Unknown",
      "city": "Unknown",
      "type": "store",
      "chain": "other",
      "lat": 32.05389044527153,
      "lng": 34.85869696302818,
      "hours": "בדוק באתר"
    },
    {
      "id": 131,
      "name": "Collection Point",
      "address": "Unknown",
      "city": "Unknown",
      "type": "store",
      "chain": "other",
      "lat": 32.182842134055036,
      "lng": 34.87443320641524,
      "hours": "בדוק באתר"
    },
    {
      "id": 132,
      "name": "Collection Point",
      "address": "Unknown",
      "city": "Unknown",
      "type": "store",
      "chain": "other",
      "lat": 32.08488768670379,
      "lng": 34.96681800535752,
      "hours": "בדוק באתר"
    },
    {
      "id": 133,
      "name": "Collection Point",
      "address": "Unknown",
      "city": "Unknown",
      "type": "store",
      "chain": "other",
      "lat": 32.17653597012258,
      "lng": 34.91761973525155,
      "hours": "בדוק באתר"
    },
    {
      "id": 134,
      "name": "Collection Point",
      "address": "Unknown",
      "city": "Unknown",
      "type": "store",
      "chain": "other",
      "lat": 32.0986965820711,
      "lng": 34.88147280166892,
      "hours": "בדוק באתר"
    },
    {
      "id": 135,
      "name": "Collection Point",
      "address": "Unknown",
      "city": "Unknown",
      "type": "store",
      "chain": "other",
      "lat": 32.080660523324525,
      "lng": 34.87529195103194,
      "hours": "בדוק באתר"
    },
    {
      "id": 136,
      "name": "Collection Point",
      "address": "Unknown",
      "city": "Unknown",
      "type": "store",
      "chain": "other",
      "lat": 32.07899319889564,
      "lng": 34.8819207200766,
      "hours": "בדוק באתר"
    },
    {
      "id": 137,
      "name": "Collection Point",
      "address": "Unknown",
      "city": "Unknown",
      "type": "store",
      "chain": "other",
      "lat": 32.17291746426363,
      "lng": 34.907472417006154,
      "hours": "בדוק באתר"
    },
    {
      "id": 138,
      "name": "Collection Point",
      "address": "Unknown",
      "city": "Unknown",
      "type": "store",
      "chain": "other",
      "lat": 32.0811990435754,
      "lng": 34.88750140445669,
      "hours": "בדוק באתר"
    },
    {
      "id": 139,
      "name": "Collection Point",
      "address": "Unknown",
      "city": "Unknown",
      "type": "store",
      "chain": "other",
      "lat": 32.15993639273895,
      "lng": 34.905066559336746,
      "hours": "בדוק באתר"
    },
    {
      "id": 140,
      "name": "Collection Point",
      "address": "Unknown",
      "city": "Unknown",
      "type": "store",
      "chain": "other",
      "lat": 32.08431105842808,
      "lng": 34.89547909001809,
      "hours": "בדוק באתר"
    },
    {
      "id": 141,
      "name": "Collection Point",
      "address": "Unknown",
      "city": "Unknown",
      "type": "store",
      "chain": "other",
      "lat": 32.09151067553534,
      "lng": 34.89328796410549,
      "hours": "בדוק באתר"
    },
    {
      "id": 142,
      "name": "Collection Point",
      "address": "Unknown",
      "city": "Unknown",
      "type": "store",
      "chain": "other",
      "lat": 32.172330180512596,
      "lng": 34.84058050251801,
      "hours": "בדוק באתר"
    },
    {
      "id": 143,
      "name": "Collection Point",
      "address": "Unknown",
      "city": "Unknown",
      "type": "store",
      "chain": "other",
      "lat": 32.19434597729185,
      "lng": 34.850340203070836,
      "hours": "בדוק באתר"
    },
    {
      "id": 144,
      "name": "Collection Point",
      "address": "Unknown",
      "city": "Unknown",
      "type": "store",
      "chain": "other",
      "lat": 32.17241256537128,
      "lng": 34.904370247685165,
      "hours": "בדוק באתר"
    },
    {
      "id": 145,
      "name": "Collection Point",
      "address": "Unknown",
      "city": "Unknown",
      "type": "store",
      "chain": "other",
      "lat": 32.17551718476994,
      "lng": 34.91461444931212,
      "hours": "בדוק באתר"
    },
    {
      "id": 146,
      "name": "Collection Point",
      "address": "Unknown",
      "city": "Unknown",
      "type": "store",
      "chain": "other",
      "lat": 32.09153801109498,
      "lng": 34.89337377652249,
      "hours": "בדוק באתר"
    },
    {
      "id": 147,
      "name": "Collection Point",
      "address": "Unknown",
      "city": "Unknown",
      "type": "store",
      "chain": "other",
      "lat": 32.152397761795385,
      "lng": 34.84324293229094,
      "hours": "בדוק באתר"
    },
    {
      "id": 148,
      "name": "Collection Point",
      "address": "Unknown",
      "city": "Unknown",
      "type": "store",
      "chain": "other",
      "lat": 32.18016298017127,
      "lng": 34.90680230067511,
      "hours": "בדוק באתר"
    },
    {
      "id": 149,
      "name": "Collection Point",
      "address": "Unknown",
      "city": "Unknown",
      "type": "store",
      "chain": "other",
      "lat": 31.257853174907176,
      "lng": 34.76796266305215,
      "hours": "בדוק באתר"
    },
    {
      "id": 150,
      "name": "Collection Point",
      "address": "Unknown",
      "city": "Unknown",
      "type": "store",
      "chain": "other",
      "lat": 31.27446651432965,
      "lng": 34.810205680084856,
      "hours": "בדוק באתר"
    },
    {
      "id": 151,
      "name": "Collection Point",
      "address": "Unknown",
      "city": "Unknown",
      "type": "store",
      "chain": "other",
      "lat": 31.264518390485925,
      "lng": 34.84685517285899,
      "hours": "בדוק באתר"
    },
    {
      "id": 152,
      "name": "Collection Point",
      "address": "Unknown",
      "city": "Unknown",
      "type": "store",
      "chain": "other",
      "lat": 31.245725472297824,
      "lng": 34.79792800538275,
      "hours": "בדוק באתר"
    },
    {
      "id": 153,
      "name": "Collection Point",
      "address": "Unknown",
      "city": "Unknown",
      "type": "store",
      "chain": "other",
      "lat": 31.24823170377975,
      "lng": 34.79253334575843,
      "hours": "בדוק באתר"
    },
    {
      "id": 154,
      "name": "Collection Point",
      "address": "Unknown",
      "city": "Unknown",
      "type": "store",
      "chain": "other",
      "lat": 31.624763994744654,
      "lng": 34.77426076328436,
      "hours": "בדוק באתר"
    },
    {
      "id": 155,
      "name": "Collection Point",
      "address": "Unknown",
      "city": "Unknown",
      "type": "store",
      "chain": "other",
      "lat": 31.394880610947496,
      "lng": 34.753871103534195,
      "hours": "בדוק באתר"
    },
    {
      "id": 156,
      "name": "Collection Point",
      "address": "Unknown",
      "city": "Unknown",
      "type": "store",
      "chain": "other",
      "lat": 31.603309690904158,
      "lng": 34.75742383051857,
      "hours": "בדוק באתר"
    },
    {
      "id": 157,
      "name": "Collection Point",
      "address": "Unknown",
      "city": "Unknown",
      "type": "store",
      "chain": "other",
      "lat": 31.79384582986177,
      "lng": 34.64093713718091,
      "hours": "בדוק באתר"
    },
    {
      "id": 158,
      "name": "Collection Point",
      "address": "Unknown",
      "city": "Unknown",
      "type": "store",
      "chain": "other",
      "lat": 31.668273783189257,
      "lng": 34.582768890030636,
      "hours": "בדוק באתר"
    },
    {
      "id": 159,
      "name": "Collection Point",
      "address": "Unknown",
      "city": "Unknown",
      "type": "store",
      "chain": "other",
      "lat": 31.78462735748573,
      "lng": 34.6342734295856,
      "hours": "בדוק באתר"
    },
    {
      "id": 160,
      "name": "Collection Point",
      "address": "Unknown",
      "city": "Unknown",
      "type": "store",
      "chain": "other",
      "lat": 31.668943639177304,
      "lng": 34.574220135364364,
      "hours": "בדוק באתר"
    },
    {
      "id": 161,
      "name": "Collection Point",
      "address": "Unknown",
      "city": "Unknown",
      "type": "store",
      "chain": "other",
      "lat": 31.778812654950702,
      "lng": 34.63538300327674,
      "hours": "בדוק באתר"
    },
    {
      "id": 162,
      "name": "Collection Point",
      "address": "Unknown",
      "city": "Unknown",
      "type": "store",
      "chain": "other",
      "lat": 31.783738006687262,
      "lng": 34.647495808348275,
      "hours": "בדוק באתר"
    },
    {
      "id": 163,
      "name": "Collection Point",
      "address": "Unknown",
      "city": "Unknown",
      "type": "store",
      "chain": "other",
      "lat": 31.69119076052603,
      "lng": 34.57559856088364,
      "hours": "בדוק באתר"
    },
    {
      "id": 164,
      "name": "Collection Point",
      "address": "Unknown",
      "city": "Unknown",
      "type": "store",
      "chain": "other",
      "lat": 31.9322663324457,
      "lng": 34.85009970351045,
      "hours": "בדוק באתר"
    },
    {
      "id": 165,
      "name": "Collection Point",
      "address": "Unknown",
      "city": "Unknown",
      "type": "store",
      "chain": "other",
      "lat": 31.86142333241815,
      "lng": 34.817677732355136,
      "hours": "בדוק באתר"
    },
    {
      "id": 166,
      "name": "Collection Point",
      "address": "Unknown",
      "city": "Unknown",
      "type": "store",
      "chain": "other",
      "lat": 31.892199720125536,
      "lng": 34.78967590647995,
      "hours": "בדוק באתר"
    },
    {
      "id": 167,
      "name": "Collection Point",
      "address": "Unknown",
      "city": "Unknown",
      "type": "store",
      "chain": "other",
      "lat": 31.880848139850688,
      "lng": 34.81284961603471,
      "hours": "בדוק באתר"
    },
    {
      "id": 168,
      "name": "Collection Point",
      "address": "Unknown",
      "city": "Unknown",
      "type": "store",
      "chain": "other",
      "lat": 31.850358182200765,
      "lng": 34.84049028818105,
      "hours": "בדוק באתר"
    },
    {
      "id": 169,
      "name": "Collection Point",
      "address": "Unknown",
      "city": "Unknown",
      "type": "store",
      "chain": "other",
      "lat": 31.941994577968917,
      "lng": 34.83368897468285,
      "hours": "בדוק באתר"
    },
    {
      "id": 170,
      "name": "Collection Point",
      "address": "Unknown",
      "city": "Unknown",
      "type": "store",
      "chain": "other",
      "lat": 31.976644996435194,
      "lng": 34.81216564584704,
      "hours": "בדוק באתר"
    },
    {
      "id": 171,
      "name": "Collection Point",
      "address": "Unknown",
      "city": "Unknown",
      "type": "store",
      "chain": "other",
      "lat": 31.933479131263493,
      "lng": 34.88791919481963,
      "hours": "בדוק באתר"
    },
    {
      "id": 172,
      "name": "Collection Point",
      "address": "Unknown",
      "city": "Unknown",
      "type": "store",
      "chain": "other",
      "lat": 31.955202788430153,
      "lng": 34.820733879380136,
      "hours": "בדוק באתר"
    },
    {
      "id": 173,
      "name": "Collection Point",
      "address": "Unknown",
      "city": "Unknown",
      "type": "store",
      "chain": "other",
      "lat": 31.885226492940664,
      "lng": 34.738753118858945,
      "hours": "בדוק באתר"
    },
    {
      "id": 174,
      "name": "Collection Point",
      "address": "Unknown",
      "city": "Unknown",
      "type": "store",
      "chain": "other",
      "lat": 31.922240101346418,
      "lng": 34.79354770647341,
      "hours": "בדוק באתר"
    },
    {
      "id": 175,
      "name": "Collection Point",
      "address": "Unknown",
      "city": "Unknown",
      "type": "store",
      "chain": "other",
      "lat": 31.926074001348322,
      "lng": 34.8648425087575,
      "hours": "בדוק באתר"
    },
    {
      "id": 176,
      "name": "Collection Point",
      "address": "Unknown",
      "city": "Unknown",
      "type": "store",
      "chain": "other",
      "lat": 31.962320620315932,
      "lng": 34.81861051516844,
      "hours": "בדוק באתר"
    },
    {
      "id": 177,
      "name": "Collection Point",
      "address": "Unknown",
      "city": "Unknown",
      "type": "store",
      "chain": "other",
      "lat": 31.89921627963837,
      "lng": 34.809885272840056,
      "hours": "בדוק באתר"
    },
    {
      "id": 178,
      "name": "Collection Point",
      "address": "Unknown",
      "city": "Unknown",
      "type": "store",
      "chain": "other",
      "lat": 31.994074788649854,
      "lng": 34.94586487946676,
      "hours": "בדוק באתר"
    },
    {
      "id": 179,
      "name": "Collection Point",
      "address": "Unknown",
      "city": "Unknown",
      "type": "store",
      "chain": "other",
      "lat": 31.766363029517738,
      "lng": 35.19406750352312,
      "hours": "בדוק באתר"
    },
    {
      "id": 180,
      "name": "Collection Point",
      "address": "Unknown",
      "city": "Unknown",
      "type": "store",
      "chain": "other",
      "lat": 31.750842715199045,
      "lng": 35.20883627468862,
      "hours": "בדוק באתר"
    },
    {
      "id": 181,
      "name": "Collection Point",
      "address": "Unknown",
      "city": "Unknown",
      "type": "store",
      "chain": "other",
      "lat": 31.824639913088653,
      "lng": 35.23740408818175,
      "hours": "בדוק באתר"
    },
    {
      "id": 182,
      "name": "Collection Point",
      "address": "Unknown",
      "city": "Unknown",
      "type": "store",
      "chain": "other",
      "lat": 31.81866676412246,
      "lng": 35.10559226047823,
      "hours": "בדוק באתר"
    },
    {
      "id": 183,
      "name": "Collection Point",
      "address": "Unknown",
      "city": "Unknown",
      "type": "store",
      "chain": "other",
      "lat": 31.88999099721479,
      "lng": 34.96246380351928,
      "hours": "בדוק באתר"
    },
    {
      "id": 184,
      "name": "Collection Point",
      "address": "Unknown",
      "city": "Unknown",
      "type": "store",
      "chain": "other",
      "lat": 31.906275995945972,
      "lng": 35.01717392181649,
      "hours": "בדוק באתר"
    },
    {
      "id": 185,
      "name": "Collection Point",
      "address": "Unknown",
      "city": "Unknown",
      "type": "store",
      "chain": "other",
      "lat": 31.732531060206444,
      "lng": 35.18801261585869,
      "hours": "בדוק באתר"
    },
    {
      "id": 186,
      "name": "Collection Point",
      "address": "Unknown",
      "city": "Unknown",
      "type": "store",
      "chain": "other",
      "lat": 31.999326544206774,
      "lng": 34.9472207593416,
      "hours": "בדוק באתר"
    },
    {
      "id": 187,
      "name": "Collection Point",
      "address": "Unknown",
      "city": "Unknown",
      "type": "store",
      "chain": "other",
      "lat": 31.88675558961247,
      "lng": 35.01840219186817,
      "hours": "בדוק באתר"
    },
    {
      "id": 188,
      "name": "Collection Point",
      "address": "Unknown",
      "city": "Unknown",
      "type": "store",
      "chain": "other",
      "lat": 31.804395412259534,
      "lng": 35.15511203235666,
      "hours": "בדוק באתר"
    },
    {
      "id": 189,
      "name": "Collection Point",
      "address": "Unknown",
      "city": "Unknown",
      "type": "store",
      "chain": "other",
      "lat": 31.75454163455028,
      "lng": 35.214679286756756,
      "hours": "בדוק באתר"
    },
    {
      "id": 190,
      "name": "Collection Point",
      "address": "Unknown",
      "city": "Unknown",
      "type": "store",
      "chain": "other",
      "lat": 31.76741874892361,
      "lng": 35.202136274688115,
      "hours": "בדוק באתר"
    },
    {
      "id": 191,
      "name": "Collection Point",
      "address": "Unknown",
      "city": "Unknown",
      "type": "store",
      "chain": "other",
      "lat": 31.755630942757534,
      "lng": 34.99040067284439,
      "hours": "בדוק באתר"
    },
    {
      "id": 192,
      "name": "Collection Point",
      "address": "Unknown",
      "city": "Unknown",
      "type": "store",
      "chain": "other",
      "lat": 31.760751718887548,
      "lng": 35.17650267468838,
      "hours": "בדוק באתר"
    },
    {
      "id": 193,
      "name": "Collection Point",
      "address": "Unknown",
      "city": "Unknown",
      "type": "store",
      "chain": "other",
      "lat": 31.775901311191028,
      "lng": 35.21804726420942,
      "hours": "בדוק באתר"
    },
    {
      "id": 194,
      "name": "Collection Point",
      "address": "Unknown",
      "city": "Unknown",
      "type": "store",
      "chain": "other",
      "lat": 31.959185134440883,
      "lng": 34.7994646611871,
      "hours": "בדוק באתר"
    },
    {
      "id": 195,
      "name": "Collection Point",
      "address": "Unknown",
      "city": "Unknown",
      "type": "store",
      "chain": "other",
      "lat": 31.997225851067288,
      "lng": 34.77345673235086,
      "hours": "בדוק באתר"
    },
    {
      "id": 196,
      "name": "Collection Point",
      "address": "Unknown",
      "city": "Unknown",
      "type": "store",
      "chain": "other",
      "lat": 32.06563636391307,
      "lng": 34.79363446226715,
      "hours": "בדוק באתר"
    },
    {
      "id": 197,
      "name": "Collection Point",
      "address": "Unknown",
      "city": "Unknown",
      "type": "store",
      "chain": "other",
      "lat": 32.02911222651314,
      "lng": 34.7452271900197,
      "hours": "בדוק באתר"
    },
    {
      "id": 198,
      "name": "Collection Point",
      "address": "Unknown",
      "city": "Unknown",
      "type": "store",
      "chain": "other",
      "lat": 31.961716528668887,
      "lng": 34.800683461186914,
      "hours": "בדוק באתר"
    },
    {
      "id": 199,
      "name": "Collection Point",
      "address": "Unknown",
      "city": "Unknown",
      "type": "store",
      "chain": "other",
      "lat": 31.967752213117073,
      "lng": 34.78534580536116,
      "hours": "בדוק באתר"
    },
    {
      "id": 200,
      "name": "Collection Point",
      "address": "Unknown",
      "city": "Unknown",
      "type": "store",
      "chain": "other",
      "lat": 32.013046608833434,
      "lng": 34.77909377652473,
      "hours": "בדוק באתר"
    },
    {
      "id": 201,
      "name": "Collection Point",
      "address": "Unknown",
      "city": "Unknown",
      "type": "store",
      "chain": "other",
      "lat": 32.00917464174618,
      "lng": 34.74629781810531,
      "hours": "בדוק באתר"
    },
    {
      "id": 202,
      "name": "Collection Point",
      "address": "Unknown",
      "city": "Unknown",
      "type": "store",
      "chain": "other",
      "lat": 32.07516520244977,
      "lng": 34.7919237910999,
      "hours": "בדוק באתר"
    },
    {
      "id": 203,
      "name": "Collection Point",
      "address": "Unknown",
      "city": "Unknown",
      "type": "store",
      "chain": "other",
      "lat": 32.0816186738404,
      "lng": 34.78997999186227,
      "hours": "בדוק באתר"
    },
    {
      "id": 204,
      "name": "Collection Point",
      "address": "Unknown",
      "city": "Unknown",
      "type": "store",
      "chain": "other",
      "lat": 32.00843415053795,
      "lng": 34.791255050628514,
      "hours": "בדוק באתר"
    },
    {
      "id": 205,
      "name": "Collection Point",
      "address": "Unknown",
      "city": "Unknown",
      "type": "store",
      "chain": "other",
      "lat": 32.09156858458636,
      "lng": 34.78254499399936,
      "hours": "בדוק באתר"
    },
    {
      "id": 206,
      "name": "Collection Point",
      "address": "Unknown",
      "city": "Unknown",
      "type": "store",
      "chain": "other",
      "lat": 32.08628992414873,
      "lng": 34.77879179001794,
      "hours": "בדוק באתר"
    },
    {
      "id": 207,
      "name": "Collection Point",
      "address": "Unknown",
      "city": "Unknown",
      "type": "store",
      "chain": "other",
      "lat": 32.08151206455359,
      "lng": 34.770415532348416,
      "hours": "בדוק באתר"
    },
    {
      "id": 208,
      "name": "Collection Point",
      "address": "Unknown",
      "city": "Unknown",
      "type": "store",
      "chain": "other",
      "lat": 32.06198693260431,
      "lng": 34.80648495061672,
      "hours": "בדוק באתר"
    },
    {
      "id": 209,
      "name": "Collection Point",
      "address": "Unknown",
      "city": "Unknown",
      "type": "store",
      "chain": "other",
      "lat": 32.07436002743445,
      "lng": 34.808339388174225,
      "hours": "בדוק באתר"
    },
    {
      "id": 210,
      "name": "Collection Point",
      "address": "Unknown",
      "city": "Unknown",
      "type": "store",
      "chain": "other",
      "lat": 32.146625789947244,
      "lng": 34.804200332346475,
      "hours": "בדוק באתר"
    },
    {
      "id": 211,
      "name": "Collection Point",
      "address": "Unknown",
      "city": "Unknown",
      "type": "store",
      "chain": "other",
      "lat": 32.103070459103414,
      "lng": 34.83660264584323,
      "hours": "בדוק באתר"
    },
    {
      "id": 212,
      "name": "Collection Point",
      "address": "Unknown",
      "city": "Unknown",
      "type": "store",
      "chain": "other",
      "lat": 32.025840354022485,
      "lng": 34.90106080535945,
      "hours": "בדוק באתר"
    },
    {
      "id": 213,
      "name": "Collection Point",
      "address": "Unknown",
      "city": "Unknown",
      "type": "store",
      "chain": "other",
      "lat": 32.08598336472185,
      "lng": 34.81158084768786,
      "hours": "בדוק באתר"
    },
    {
      "id": 214,
      "name": "Collection Point",
      "address": "Unknown",
      "city": "Unknown",
      "type": "store",
      "chain": "other",
      "lat": 32.08142550567675,
      "lng": 34.80978524189767,
      "hours": "בדוק באתר"
    },
    {
      "id": 215,
      "name": "Collection Point",
      "address": "Unknown",
      "city": "Unknown",
      "type": "store",
      "chain": "other",
      "lat": 32.03053861785031,
      "lng": 34.87821292178885,
      "hours": "בדוק באתר"
    },
    {
      "id": 216,
      "name": "Collection Point",
      "address": "Unknown",
      "city": "Unknown",
      "type": "store",
      "chain": "other",
      "lat": 32.071843051528575,
      "lng": 34.828972888174235,
      "hours": "בדוק באתר"
    },
    {
      "id": 217,
      "name": "Collection Point",
      "address": "Unknown",
      "city": "Unknown",
      "type": "store",
      "chain": "other",
      "lat": 32.11198363514775,
      "lng": 34.796376947686916,
      "hours": "בדוק באתר"
    },
    {
      "id": 218,
      "name": "Collection Point",
      "address": "Unknown",
      "city": "Unknown",
      "type": "store",
      "chain": "other",
      "lat": 32.061448548366315,
      "lng": 34.828136703514126,
      "hours": "בדוק באתר"
    },
    {
      "id": 219,
      "name": "Collection Point",
      "address": "Unknown",
      "city": "Unknown",
      "type": "store",
      "chain": "other",
      "lat": 32.055589221264015,
      "lng": 34.84968427652361,
      "hours": "בדוק באתר"
    },
    {
      "id": 220,
      "name": "Collection Point",
      "address": "Unknown",
      "city": "Unknown",
      "type": "store",
      "chain": "other",
      "lat": 32.12195607599428,
      "lng": 34.83484275933796,
      "hours": "בדוק באתר"
    },
    {
      "id": 221,
      "name": "Collection Point",
      "address": "Unknown",
      "city": "Unknown",
      "type": "store",
      "chain": "other",
      "lat": 32.07855210391202,
      "lng": 34.81537143527348,
      "hours": "בדוק באתר"
    },
    {
      "id": 222,
      "name": "Collection Point",
      "address": "Unknown",
      "city": "Unknown",
      "type": "store",
      "chain": "other",
      "lat": 32.163039226973154,
      "lng": 34.85055289001561,
      "hours": "בדוק באתר"
    },
    {
      "id": 223,
      "name": "Collection Point",
      "address": "Unknown",
      "city": "Unknown",
      "type": "store",
      "chain": "other",
      "lat": 32.0879825418008,
      "lng": 34.85975621700871,
      "hours": "בדוק באתר"
    },
    {
      "id": 224,
      "name": "Collection Point",
      "address": "Unknown",
      "city": "Unknown",
      "type": "store",
      "chain": "other",
      "lat": 32.09368239152376,
      "lng": 34.973679359338796,
      "hours": "בדוק באתר"
    },
    {
      "id": 225,
      "name": "Collection Point",
      "address": "Unknown",
      "city": "Unknown",
      "type": "store",
      "chain": "other",
      "lat": 32.100386175290026,
      "lng": 34.89523857652228,
      "hours": "בדוק באתר"
    },
    {
      "id": 226,
      "name": "Collection Point",
      "address": "Unknown",
      "city": "Unknown",
      "type": "store",
      "chain": "other",
      "lat": 32.074854829370594,
      "lng": 34.8696069064395,
      "hours": "בדוק באתר"
    },
    {
      "id": 227,
      "name": "Collection Point",
      "address": "Unknown",
      "city": "Unknown",
      "type": "store",
      "chain": "other",
      "lat": 32.19768706773851,
      "lng": 34.87915336117983,
      "hours": "בדוק באתר"
    },
    {
      "id": 228,
      "name": "Collection Point",
      "address": "Unknown",
      "city": "Unknown",
      "type": "store",
      "chain": "other",
      "lat": 32.09282653012327,
      "lng": 34.96618026410522,
      "hours": "בדוק באתר"
    },
    {
      "id": 229,
      "name": "Collection Point",
      "address": "Unknown",
      "city": "Unknown",
      "type": "store",
      "chain": "other",
      "lat": 32.076731447918775,
      "lng": 34.884767520697366,
      "hours": "בדוק באתר"
    },
    {
      "id": 230,
      "name": "Collection Point",
      "address": "Unknown",
      "city": "Unknown",
      "type": "store",
      "chain": "other",
      "lat": 32.08006831932464,
      "lng": 34.90239872177767,
      "hours": "בדוק באתר"
    },
    {
      "id": 231,
      "name": "Collection Point",
      "address": "Unknown",
      "city": "Unknown",
      "type": "store",
      "chain": "other",
      "lat": 32.19329326083469,
      "lng": 34.881587445840424,
      "hours": "בדוק באתר"
    },
    {
      "id": 232,
      "name": "Collection Point",
      "address": "Unknown",
      "city": "Unknown",
      "type": "store",
      "chain": "other",
      "lat": 32.102681518211746,
      "lng": 35.206474518852325,
      "hours": "בדוק באתר"
    },
    {
      "id": 233,
      "name": "Collection Point",
      "address": "Unknown",
      "city": "Unknown",
      "type": "store",
      "chain": "other",
      "lat": 32.14380770804521,
      "lng": 34.837721846910064,
      "hours": "בדוק באתר"
    },
    {
      "id": 234,
      "name": "Collection Point",
      "address": "Unknown",
      "city": "Unknown",
      "type": "store",
      "chain": "other",
      "lat": 32.179842484202396,
      "lng": 34.87917980351052,
      "hours": "בדוק באתר"
    },
    {
      "id": 235,
      "name": "Collection Point",
      "address": "Unknown",
      "city": "Unknown",
      "type": "store",
      "chain": "other",
      "lat": 32.4750192498176,
      "lng": 34.99758424398751,
      "hours": "בדוק באתר"
    },
    {
      "id": 236,
      "name": "Collection Point",
      "address": "Unknown",
      "city": "Unknown",
      "type": "store",
      "chain": "other",
      "lat": 32.288024525779655,
      "lng": 34.94583439289634,
      "hours": "בדוק באתר"
    },
    {
      "id": 237,
      "name": "Collection Point",
      "address": "Unknown",
      "city": "Unknown",
      "type": "store",
      "chain": "other",
      "lat": 32.440756550465245,
      "lng": 34.88156205238146,
      "hours": "בדוק באתר"
    },
    {
      "id": 238,
      "name": "Collection Point",
      "address": "Unknown",
      "city": "Unknown",
      "type": "store",
      "chain": "other",
      "lat": 32.435455473755766,
      "lng": 34.90883453703753,
      "hours": "בדוק באתר"
    },
    {
      "id": 239,
      "name": "Collection Point",
      "address": "Unknown",
      "city": "Unknown",
      "type": "store",
      "chain": "other",
      "lat": 32.51776309142682,
      "lng": 34.94047166301406,
      "hours": "בדוק באתר"
    },
    {
      "id": 240,
      "name": "Collection Point",
      "address": "Unknown",
      "city": "Unknown",
      "type": "store",
      "chain": "other",
      "lat": 32.47692233212556,
      "lng": 34.97676090127668,
      "hours": "בדוק באתר"
    },
    {
      "id": 241,
      "name": "Collection Point",
      "address": "Unknown",
      "city": "Unknown",
      "type": "store",
      "chain": "other",
      "lat": 32.32094317147423,
      "lng": 34.93641915690134,
      "hours": "בדוק באתר"
    },
    {
      "id": 242,
      "name": "Collection Point",
      "address": "Unknown",
      "city": "Unknown",
      "type": "store",
      "chain": "other",
      "lat": 32.56881136494131,
      "lng": 34.9550411198237,
      "hours": "בדוק באתר"
    },
    {
      "id": 243,
      "name": "Collection Point",
      "address": "Unknown",
      "city": "Unknown",
      "type": "store",
      "chain": "other",
      "lat": 32.64263629549775,
      "lng": 35.09251003417535,
      "hours": "בדוק באתר"
    },
    {
      "id": 244,
      "name": "Collection Point",
      "address": "Unknown",
      "city": "Unknown",
      "type": "store",
      "chain": "other",
      "lat": 32.3046371747417,
      "lng": 34.903237274671696,
      "hours": "בדוק באתר"
    },
    {
      "id": 245,
      "name": "Collection Point",
      "address": "Unknown",
      "city": "Unknown",
      "type": "store",
      "chain": "other",
      "lat": 32.50211012905738,
      "lng": 34.92691243702233,
      "hours": "בדוק באתר"
    },
    {
      "id": 246,
      "name": "Collection Point",
      "address": "Unknown",
      "city": "Unknown",
      "type": "store",
      "chain": "other",
      "lat": 32.416449392569476,
      "lng": 34.95211247862388,
      "hours": "בדוק באתר"
    },
    {
      "id": 247,
      "name": "Collection Point",
      "address": "Unknown",
      "city": "Unknown",
      "type": "store",
      "chain": "other",
      "lat": 32.40515947006312,
      "lng": 34.90194522952296,
      "hours": "בדוק באתר"
    },
    {
      "id": 248,
      "name": "Collection Point",
      "address": "Unknown",
      "city": "Unknown",
      "type": "store",
      "chain": "other",
      "lat": 32.32281690187813,
      "lng": 34.87346953234118,
      "hours": "בדוק באתר"
    },
    {
      "id": 249,
      "name": "Collection Point",
      "address": "Unknown",
      "city": "Unknown",
      "type": "store",
      "chain": "other",
      "lat": 32.47078285648183,
      "lng": 35.039214518841106,
      "hours": "בדוק באתר"
    },
    {
      "id": 250,
      "name": "Collection Point",
      "address": "Unknown",
      "city": "Unknown",
      "type": "store",
      "chain": "other",
      "lat": 32.17276902038231,
      "lng": 34.92964414768528,
      "hours": "בדוק באתר"
    },
    {
      "id": 251,
      "name": "Collection Point",
      "address": "Unknown",
      "city": "Unknown",
      "type": "store",
      "chain": "other",
      "lat": 32.276326750251506,
      "lng": 34.86139424768206,
      "hours": "בדוק באתר"
    },
    {
      "id": 252,
      "name": "Collection Point",
      "address": "Unknown",
      "city": "Unknown",
      "type": "store",
      "chain": "other",
      "lat": 32.17779530542721,
      "lng": 34.89914557942559,
      "hours": "בדוק באתר"
    },
    {
      "id": 253,
      "name": "Collection Point",
      "address": "Unknown",
      "city": "Unknown",
      "type": "store",
      "chain": "other",
      "lat": 32.16310323869533,
      "lng": 34.90945560535531,
      "hours": "בדוק באתר"
    },
    {
      "id": 254,
      "name": "Collection Point",
      "address": "Unknown",
      "city": "Unknown",
      "type": "store",
      "chain": "other",
      "lat": 32.219277490814825,
      "lng": 34.98131972681182,
      "hours": "בדוק באתר"
    },
    {
      "id": 255,
      "name": "Collection Point",
      "address": "Unknown",
      "city": "Unknown",
      "type": "store",
      "chain": "other",
      "lat": 32.1922018246256,
      "lng": 34.891622945840375,
      "hours": "בדוק באתר"
    },
    {
      "id": 256,
      "name": "Collection Point",
      "address": "Unknown",
      "city": "Unknown",
      "type": "store",
      "chain": "other",
      "lat": 32.28448914643232,
      "lng": 34.85987090350724,
      "hours": "בדוק באתר"
    },
    {
      "id": 257,
      "name": "Collection Point",
      "address": "Unknown",
      "city": "Unknown",
      "type": "store",
      "chain": "other",
      "lat": 32.14356607126411,
      "lng": 34.891319156717124,
      "hours": "בדוק באתר"
    },
    {
      "id": 258,
      "name": "Collection Point",
      "address": "Unknown",
      "city": "Unknown",
      "type": "store",
      "chain": "other",
      "lat": 32.15628588379213,
      "lng": 34.89227237467636,
      "hours": "בדוק באתר"
    },
    {
      "id": 259,
      "name": "Collection Point",
      "address": "Unknown",
      "city": "Unknown",
      "type": "store",
      "chain": "other",
      "lat": 32.176915250552035,
      "lng": 34.908776890015304,
      "hours": "בדוק באתר"
    },
    {
      "id": 260,
      "name": "Collection Point",
      "address": "Unknown",
      "city": "Unknown",
      "type": "store",
      "chain": "other",
      "lat": 32.32737349489438,
      "lng": 34.85508230350603,
      "hours": "בדוק באתר"
    },
    {
      "id": 261,
      "name": "Collection Point",
      "address": "Unknown",
      "city": "Unknown",
      "type": "store",
      "chain": "other",
      "lat": 32.33157985326169,
      "lng": 34.85868577651517,
      "hours": "בדוק באתר"
    },
    {
      "id": 262,
      "name": "Collection Point",
      "address": "Unknown",
      "city": "Unknown",
      "type": "store",
      "chain": "other",
      "lat": 32.78974320582636,
      "lng": 35.008937518831274,
      "hours": "בדוק באתר"
    },
    {
      "id": 263,
      "name": "Collection Point",
      "address": "Unknown",
      "city": "Unknown",
      "type": "store",
      "chain": "other",
      "lat": 32.785146260350345,
      "lng": 35.004453821089996,
      "hours": "בדוק באתר"
    },
    {
      "id": 264,
      "name": "Collection Point",
      "address": "Unknown",
      "city": "Unknown",
      "type": "store",
      "chain": "other",
      "lat": 32.784902332353404,
      "lng": 34.99652101698722,
      "hours": "בדוק באתר"
    },
    {
      "id": 265,
      "name": "Collection Point",
      "address": "Unknown",
      "city": "Unknown",
      "type": "store",
      "chain": "other",
      "lat": 32.796122572889,
      "lng": 35.00994926116126,
      "hours": "בדוק באתר"
    },
    {
      "id": 266,
      "name": "Collection Point",
      "address": "Unknown",
      "city": "Unknown",
      "type": "store",
      "chain": "other",
      "lat": 32.82547938873521,
      "lng": 34.98346719461886,
      "hours": "בדוק באתר"
    },
    {
      "id": 267,
      "name": "Collection Point",
      "address": "Unknown",
      "city": "Unknown",
      "type": "store",
      "chain": "other",
      "lat": 32.80252032102639,
      "lng": 34.983137635110054,
      "hours": "בדוק באתר"
    },
    {
      "id": 268,
      "name": "Collection Point",
      "address": "Unknown",
      "city": "Unknown",
      "type": "store",
      "chain": "other",
      "lat": 32.795085680512344,
      "lng": 34.99647473417052,
      "hours": "בדוק באתר"
    },
    {
      "id": 269,
      "name": "Collection Point",
      "address": "Unknown",
      "city": "Unknown",
      "type": "store",
      "chain": "other",
      "lat": 32.81344376615231,
      "lng": 34.96049253196734,
      "hours": "בדוק באתר"
    },
    {
      "id": 270,
      "name": "Collection Point",
      "address": "Unknown",
      "city": "Unknown",
      "type": "store",
      "chain": "other",
      "lat": 32.783136753914185,
      "lng": 34.960098888152416,
      "hours": "בדוק באתר"
    },
    {
      "id": 271,
      "name": "Collection Point",
      "address": "Unknown",
      "city": "Unknown",
      "type": "store",
      "chain": "other",
      "lat": 32.76882144263608,
      "lng": 35.003471665796965,
      "hours": "בדוק באתר"
    },
    {
      "id": 272,
      "name": "Collection Point",
      "address": "Unknown",
      "city": "Unknown",
      "type": "store",
      "chain": "other",
      "lat": 32.82084102997483,
      "lng": 34.97369649183959,
      "hours": "בדוק באתר"
    },
    {
      "id": 273,
      "name": "Collection Point",
      "address": "Unknown",
      "city": "Unknown",
      "type": "store",
      "chain": "other",
      "lat": 32.78420598408576,
      "lng": 35.01342980812359,
      "hours": "בדוק באתר"
    },
    {
      "id": 274,
      "name": "Collection Point",
      "address": "Unknown",
      "city": "Unknown",
      "type": "store",
      "chain": "other",
      "lat": 32.78463532952208,
      "lng": 34.98702343232686,
      "hours": "בדוק באתר"
    },
    {
      "id": 275,
      "name": "Collection Point",
      "address": "Unknown",
      "city": "Unknown",
      "type": "store",
      "chain": "other",
      "lat": 32.80483286410838,
      "lng": 34.987463062015806,
      "hours": "בדוק באתר"
    },
    {
      "id": 276,
      "name": "Collection Point",
      "address": "Unknown",
      "city": "Unknown",
      "type": "store",
      "chain": "other",
      "lat": 32.71212480036442,
      "lng": 35.14445786685291,
      "hours": "בדוק באתר"
    },
    {
      "id": 277,
      "name": "Collection Point",
      "address": "Unknown",
      "city": "Unknown",
      "type": "store",
      "chain": "other",
      "lat": 32.666992600443656,
      "lng": 35.239464960287535,
      "hours": "בדוק באתר"
    },
    {
      "id": 278,
      "name": "Collection Point",
      "address": "Unknown",
      "city": "Unknown",
      "type": "store",
      "chain": "other",
      "lat": 33.00706652170248,
      "lng": 35.09647865746647,
      "hours": "בדוק באתר"
    },
    {
      "id": 279,
      "name": "Collection Point",
      "address": "Unknown",
      "city": "Unknown",
      "type": "store",
      "chain": "other",
      "lat": 32.938267097223196,
      "lng": 35.078367276496294,
      "hours": "בדוק באתר"
    },
    {
      "id": 280,
      "name": "Collection Point",
      "address": "Unknown",
      "city": "Unknown",
      "type": "store",
      "chain": "other",
      "lat": 32.833638426863516,
      "lng": 35.07386036116008,
      "hours": "בדוק באתר"
    },
    {
      "id": 281,
      "name": "Collection Point",
      "address": "Unknown",
      "city": "Unknown",
      "type": "store",
      "chain": "other",
      "lat": 32.821768963459995,
      "lng": 35.06985614766508,
      "hours": "בדוק באתר"
    },
    {
      "id": 282,
      "name": "Collection Point",
      "address": "Unknown",
      "city": "Unknown",
      "type": "store",
      "chain": "other",
      "lat": 32.829066358948566,
      "lng": 35.06011294859937,
      "hours": "בדוק באתר"
    },
    {
      "id": 283,
      "name": "Collection Point",
      "address": "Unknown",
      "city": "Unknown",
      "type": "store",
      "chain": "other",
      "lat": 32.81299183252975,
      "lng": 35.1153205304817,
      "hours": "בדוק באתר"
    },
    {
      "id": 284,
      "name": "Collection Point",
      "address": "Unknown",
      "city": "Unknown",
      "type": "store",
      "chain": "other",
      "lat": 32.67843988770799,
      "lng": 35.24339292164297,
      "hours": "בדוק באתר"
    },
    {
      "id": 285,
      "name": "Collection Point",
      "address": "Unknown",
      "city": "Unknown",
      "type": "store",
      "chain": "other",
      "lat": 32.80890743544671,
      "lng": 35.075491773984716,
      "hours": "בדוק באתר"
    },
    {
      "id": 286,
      "name": "Collection Point",
      "address": "Unknown",
      "city": "Unknown",
      "type": "store",
      "chain": "other",
      "lat": 32.844129920750284,
      "lng": 35.09015236762385,
      "hours": "בדוק באתר"
    },
    {
      "id": 287,
      "name": "Collection Point",
      "address": "Unknown",
      "city": "Unknown",
      "type": "store",
      "chain": "other",
      "lat": 32.84095692409117,
      "lng": 35.08016314800035,
      "hours": "בדוק באתר"
    },
    {
      "id": 288,
      "name": "Collection Point",
      "address": "Unknown",
      "city": "Unknown",
      "type": "store",
      "chain": "other",
      "lat": 33.00127283680277,
      "lng": 35.09705570532919,
      "hours": "בדוק באתר"
    },
    {
      "id": 289,
      "name": "Collection Point",
      "address": "Unknown",
      "city": "Unknown",
      "type": "store",
      "chain": "other",
      "lat": 32.7148430628561,
      "lng": 35.12537440718235,
      "hours": "בדוק באתר"
    },
    {
      "id": 290,
      "name": "Collection Point",
      "address": "Unknown",
      "city": "Unknown",
      "type": "store",
      "chain": "other",
      "lat": 32.77844013621271,
      "lng": 35.03891487744584,
      "hours": "בדוק באתר"
    },
    {
      "id": 291,
      "name": "Collection Point",
      "address": "Unknown",
      "city": "Unknown",
      "type": "store",
      "chain": "other",
      "lat": 32.85905680905431,
      "lng": 35.09271001882913,
      "hours": "בדוק באתר"
    },
    {
      "id": 292,
      "name": "Collection Point",
      "address": "Unknown",
      "city": "Unknown",
      "type": "store",
      "chain": "other",
      "lat": 32.99577706415372,
      "lng": 35.27584262360018,
      "hours": "בדוק באתר"
    },
    {
      "id": 293,
      "name": "Collection Point",
      "address": "Unknown",
      "city": "Unknown",
      "type": "store",
      "chain": "other",
      "lat": 33.019368081422634,
      "lng": 35.282959674649604,
      "hours": "בדוק באתר"
    },
    {
      "id": 294,
      "name": "Collection Point",
      "address": "Unknown",
      "city": "Unknown",
      "type": "store",
      "chain": "other",
      "lat": 32.90766956204339,
      "lng": 35.2938796323228,
      "hours": "בדוק באתר"
    },
    {
      "id": 295,
      "name": "Collection Point",
      "address": "Unknown",
      "city": "Unknown",
      "type": "store",
      "chain": "other",
      "lat": 32.70865862498099,
      "lng": 35.32503977465934,
      "hours": "בדוק באתר"
    },
    {
      "id": 296,
      "name": "Collection Point",
      "address": "Unknown",
      "city": "Unknown",
      "type": "store",
      "chain": "other",
      "lat": 32.78944176128612,
      "lng": 35.53511031698711,
      "hours": "בדוק באתר"
    },
    {
      "id": 297,
      "name": "Collection Point",
      "address": "Unknown",
      "city": "Unknown",
      "type": "store",
      "chain": "other",
      "lat": 32.99099195352307,
      "lng": 35.708694405329716,
      "hours": "בדוק באתר"
    },
    {
      "id": 298,
      "name": "Collection Point",
      "address": "Unknown",
      "city": "Unknown",
      "type": "store",
      "chain": "other",
      "lat": 32.610132006558786,
      "lng": 35.293730621658476,
      "hours": "בדוק באתר"
    },
    {
      "id": 299,
      "name": "Collection Point",
      "address": "Unknown",
      "city": "Unknown",
      "type": "store",
      "chain": "other",
      "lat": 32.69519441010235,
      "lng": 35.418595074659976,
      "hours": "בדוק באתר"
    },
    {
      "id": 300,
      "name": "Collection Point",
      "address": "Unknown",
      "city": "Unknown",
      "type": "store",
      "chain": "other",
      "lat": 33.223103825498875,
      "lng": 35.576963562992034,
      "hours": "בדוק באתר"
    },
    {
      "id": 301,
      "name": "Collection Point",
      "address": "Unknown",
      "city": "Unknown",
      "type": "store",
      "chain": "other",
      "lat": 32.9582691718279,
      "lng": 35.4982975860096,
      "hours": "בדוק באתר"
    },
    {
      "id": 302,
      "name": "Collection Point",
      "address": "Unknown",
      "city": "Unknown",
      "type": "store",
      "chain": "other",
      "lat": 32.90530677925534,
      "lng": 35.281740416983496,
      "hours": "בדוק באתר"
    },
    {
      "id": 303,
      "name": "Collection Point",
      "address": "Unknown",
      "city": "Unknown",
      "type": "store",
      "chain": "other",
      "lat": 32.62304460829394,
      "lng": 35.315533863010806,
      "hours": "בדוק באתר"
    },
    {
      "id": 304,
      "name": "Collection Point",
      "address": "Unknown",
      "city": "Unknown",
      "type": "store",
      "chain": "other",
      "lat": 32.498830744917576,
      "lng": 35.49784041664645,
      "hours": "בדוק באתר"
    },
    {
      "id": 305,
      "name": "Collection Point",
      "address": "Unknown",
      "city": "Unknown",
      "type": "store",
      "chain": "other",
      "lat": 32.90837755988361,
      "lng": 35.294048668517576,
      "hours": "בדוק באתר"
    },
    {
      "id": 306,
      "name": "Collection Point",
      "address": "Unknown",
      "city": "Unknown",
      "type": "store",
      "chain": "other",
      "lat": 33.19539068068708,
      "lng": 35.5707524394304,
      "hours": "בדוק באתר"
    },
    {
      "id": 307,
      "name": "Collection Point",
      "address": "Unknown",
      "city": "Unknown",
      "type": "store",
      "chain": "other",
      "lat": 32.98153287117027,
      "lng": 35.55607891698099,
      "hours": "בדוק באתר"
    },
    {
      "id": 308,
      "name": "Collection Point",
      "address": "Unknown",
      "city": "Unknown",
      "type": "store",
      "chain": "other",
      "lat": 32.95781984403027,
      "lng": 35.49799305041421,
      "hours": "בדוק באתר"
    },
    {
      "id": 309,
      "name": "שוק מהדרין (לשעבר זול בשפע) עמישב פתח תקוה",
      "address": "דרך מנחם בגין 96 96, פתח תקווה",
      "city": "פתח תקווה",
      "type": "store",
      "chain": "other",
      "lat": 32.07023,
      "lng": 34.913392,
      "hours": "בדוק באתר"
    },
    {
      "id": 310,
      "name": "מגה",
      "address": "שלום אש 7, תל אביב",
      "city": "תל אביב",
      "type": "store",
      "chain": "other",
      "lat": 32.107319,
      "lng": 34.820056,
      "hours": "בדוק באתר"
    },
    {
      "id": 311,
      "name": "מגה",
      "address": "שדרות ירושלים 200, אשקלון",
      "city": "אשקלון",
      "type": "store",
      "chain": "other",
      "lat": 31.690955,
      "lng": 34.576442,
      "hours": "בדוק באתר"
    },
    {
      "id": 312,
      "name": "זול בשפע מודיעין עילית",
      "address": "שד' יחזקאל 2 2, מודיעין",
      "city": "מודיעין",
      "type": "store",
      "chain": "other",
      "lat": 31.937398,
      "lng": 35.0393537,
      "hours": "בדוק באתר"
    },
    {
      "id": 313,
      "name": "מגה - צרכניה",
      "address": "רוגוזין 25, אשדוד",
      "city": "אשדוד",
      "type": "store",
      "chain": "other",
      "lat": 31.804062,
      "lng": 34.642527,
      "hours": "בדוק באתר"
    },
    {
      "id": 314,
      "name": "רשות מקומית - מוקד איסוף",
      "address": "דב עוז 16, תל אביב",
      "city": "תל אביב",
      "type": "store",
      "chain": "other",
      "lat": 32.080721,
      "lng": 34.772658,
      "hours": "בדוק באתר"
    },
    {
      "id": 315,
      "name": "מגה",
      "address": "הרא\"ה 2, רמת גן",
      "city": "רמת גן",
      "type": "store",
      "chain": "other",
      "lat": 32.083789,
      "lng": 34.815543,
      "hours": "בדוק באתר"
    },
    {
      "id": 316,
      "name": "מגה",
      "address": "דרך יצחק רבין 53, גבעתיים",
      "city": "גבעתיים",
      "type": "store",
      "chain": "other",
      "lat": 32.067054,
      "lng": 34.808677,
      "hours": "בדוק באתר"
    },
    {
      "id": 317,
      "name": "מגה",
      "address": "זבוטינסקי 32, באר שבע",
      "city": "באר שבע",
      "type": "store",
      "chain": "other",
      "lat": 31.239373,
      "lng": 34.773714,
      "hours": "בדוק באתר"
    },
    {
      "id": 318,
      "name": "מגה",
      "address": "אורנים 1, גבעת שמואל",
      "city": "גבעת שמואל",
      "type": "store",
      "chain": "other",
      "lat": 32.06840072995025,
      "lng": 34.84554351417165,
      "hours": "בדוק באתר"
    },
    {
      "id": 319,
      "name": "מגה",
      "address": "אבא אחימאיר 35, תל אביב",
      "city": "תל אביב",
      "type": "store",
      "chain": "other",
      "lat": 32.124522,
      "lng": 34.804269,
      "hours": "בדוק באתר"
    },
    {
      "id": 320,
      "name": "זול בשפע נאות חן חדרה",
      "address": "הלל יפה 5, פינת סמילנסקי 5, חדרה",
      "city": "חדרה",
      "type": "store",
      "chain": "other",
      "lat": 32.434117,
      "lng": 34.915959,
      "hours": "בדוק באתר"
    },
    {
      "id": 321,
      "name": "מגה",
      "address": "בני ברמן 2, נתניה",
      "city": "נתניה",
      "type": "store",
      "chain": "other",
      "lat": 32.279062,
      "lng": 34.846992,
      "hours": "בדוק באתר"
    },
    {
      "id": 322,
      "name": "מגה",
      "address": "הרב קוק 32, נתניה",
      "city": "נתניה",
      "type": "store",
      "chain": "other",
      "lat": 32.333341,
      "lng": 34.854311,
      "hours": "בדוק באתר"
    },
    {
      "id": 323,
      "name": "מגה",
      "address": "אלכסנדר ינאי 3, חיפה",
      "city": "חיפה",
      "type": "store",
      "chain": "other",
      "lat": 32.797127,
      "lng": 34.977858,
      "hours": "בדוק באתר"
    },
    {
      "id": 324,
      "name": "מגה",
      "address": "אלכסנדר ינאי 3, חיפה",
      "city": "חיפה",
      "type": "store",
      "chain": "other",
      "lat": 32.797326,
      "lng": 34.977826,
      "hours": "בדוק באתר"
    },
    {
      "id": 325,
      "name": "מגה",
      "address": "שער הים 10, הרצליה",
      "city": "הרצליה",
      "type": "store",
      "chain": "other",
      "lat": 32.187851,
      "lng": 34.812911,
      "hours": "בדוק באתר"
    },
    {
      "id": 326,
      "name": "מגה",
      "address": "ברל כצנלסון 19, הרצליה",
      "city": "הרצליה",
      "type": "store",
      "chain": "other",
      "lat": 32.168587,
      "lng": 34.856419,
      "hours": "בדוק באתר"
    },
    {
      "id": 327,
      "name": "מגה",
      "address": "בן גוריון 82, הרצליה",
      "city": "הרצליה",
      "type": "store",
      "chain": "other",
      "lat": 32.154531,
      "lng": 34.842246,
      "hours": "בדוק באתר"
    },
    {
      "id": 328,
      "name": "זול בשפע הרצל חיפה",
      "address": "הרצל 97 97, חיפה",
      "city": "חיפה",
      "type": "store",
      "chain": "other",
      "lat": 32.804805,
      "lng": 35.003375,
      "hours": "בדוק באתר"
    },
    {
      "id": 329,
      "name": "מגה",
      "address": "אהרון בקר 8, תל אביב",
      "city": "תל אביב",
      "type": "store",
      "chain": "other",
      "lat": 32.123151,
      "lng": 34.816404,
      "hours": "בדוק באתר"
    },
    {
      "id": 330,
      "name": "מגה",
      "address": "ההסתדרות 104, חולון",
      "city": "חולון",
      "type": "store",
      "chain": "other",
      "lat": 32.016922,
      "lng": 34.781406,
      "hours": "בדוק באתר"
    },
    {
      "id": 331,
      "name": "מגה",
      "address": "לילך 8, מזכרת בתיה",
      "city": "מזכרת בתיה",
      "type": "store",
      "chain": "other",
      "lat": 31.854380056005187,
      "lng": 34.841901701676264,
      "hours": "בדוק באתר"
    },
    {
      "id": 332,
      "name": "הגרעין",
      "address": "הנשיא 57, קריית אונו",
      "city": "קריית אונו",
      "type": "store",
      "chain": "other",
      "lat": 32.060484,
      "lng": 34.856452,
      "hours": "בדוק באתר"
    },
    {
      "id": 333,
      "name": "מגה",
      "address": "אביזוהר 1, ירושלים",
      "city": "ירושלים",
      "type": "store",
      "chain": "other",
      "lat": 31.775582,
      "lng": 35.188377,
      "hours": "בדוק באתר"
    },
    {
      "id": 334,
      "name": "מגה",
      "address": "המייסדים 40, אבן יהודה",
      "city": "אבן יהודה",
      "type": "store",
      "chain": "other",
      "lat": 32.26963,
      "lng": 34.890741,
      "hours": "בדוק באתר"
    },
    {
      "id": 335,
      "name": "מגה",
      "address": "גולני 43, אילת",
      "city": "אילת",
      "type": "store",
      "chain": "other",
      "lat": 29.56589698905836,
      "lng": 34.95605926762717,
      "hours": "בדוק באתר"
    },
    {
      "id": 336,
      "name": "מגה",
      "address": "אבנר בן נר 1, נס ציונה",
      "city": "נס ציונה",
      "type": "store",
      "chain": "other",
      "lat": 31.922548,
      "lng": 34.810377,
      "hours": "בדוק באתר"
    },
    {
      "id": 337,
      "name": "מגה",
      "address": "י.כהן 2, כפר סבא",
      "city": "כפר סבא",
      "type": "store",
      "chain": "other",
      "lat": 32.186363,
      "lng": 34.904518,
      "hours": "בדוק באתר"
    },
    {
      "id": 338,
      "name": "מגה",
      "address": "זוהר טל 34, הרצליה",
      "city": "הרצליה",
      "type": "store",
      "chain": "other",
      "lat": 32.170573,
      "lng": 34.802846,
      "hours": "בדוק באתר"
    },
    {
      "id": 339,
      "name": "מגה",
      "address": "עמק בית שאן 29, מודיעין",
      "city": "מודיעין",
      "type": "store",
      "chain": "other",
      "lat": 31.911725,
      "lng": 35.001553,
      "hours": "בדוק באתר"
    },
    {
      "id": 340,
      "name": "מגה",
      "address": "אורי לסר 12, תל אביב יפו",
      "city": "תל אביב יפו",
      "type": "store",
      "chain": "other",
      "lat": 32.081682,
      "lng": 34.785388,
      "hours": "בדוק באתר"
    },
    {
      "id": 341,
      "name": "מגה",
      "address": "גרינברג 20, חיפה",
      "city": "חיפה",
      "type": "store",
      "chain": "other",
      "lat": 32.775897,
      "lng": 34.991631,
      "hours": "בדוק באתר"
    },
    {
      "id": 342,
      "name": "מגה",
      "address": "ארבע עונות 14, לוד",
      "city": "לוד",
      "type": "store",
      "chain": "other",
      "lat": 31.958724,
      "lng": 34.880523,
      "hours": "בדוק באתר"
    },
    {
      "id": 343,
      "name": "מגה",
      "address": "כורזים 1, גבעתיים",
      "city": "גבעתיים",
      "type": "store",
      "chain": "other",
      "lat": 32.059642,
      "lng": 34.816204,
      "hours": "בדוק באתר"
    },
    {
      "id": 344,
      "name": "מגה",
      "address": "ויצמן 20, תל אביב",
      "city": "תל אביב",
      "type": "store",
      "chain": "other",
      "lat": 32.082934,
      "lng": 34.78913,
      "hours": "בדוק באתר"
    },
    {
      "id": 345,
      "name": "מגה",
      "address": "עמק ברכה 25, תל אביב",
      "city": "תל אביב",
      "type": "store",
      "chain": "other",
      "lat": 32.076539,
      "lng": 34.798974,
      "hours": "בדוק באתר"
    },
    {
      "id": 346,
      "name": "מגה",
      "address": "מעפילי אגוז , כפר שלם, תל אביב",
      "city": "תל אביב",
      "type": "store",
      "chain": "other",
      "lat": 32.05346,
      "lng": 34.809946,
      "hours": "בדוק באתר"
    },
    {
      "id": 347,
      "name": "מגה",
      "address": "ירושלים 29, נתניה",
      "city": "נתניה",
      "type": "store",
      "chain": "other",
      "lat": 32.323827,
      "lng": 34.855097,
      "hours": "בדוק באתר"
    },
    {
      "id": 348,
      "name": "מגה",
      "address": "אופנייהמר 13, תל אביב",
      "city": "תל אביב",
      "type": "store",
      "chain": "other",
      "lat": 32.120474,
      "lng": 34.800299,
      "hours": "בדוק באתר"
    },
    {
      "id": 349,
      "name": "מגה",
      "address": "ניסים אלוני 10, תל אביב",
      "city": "תל אביב",
      "type": "store",
      "chain": "other",
      "lat": 32.088866,
      "lng": 34.797339,
      "hours": "בדוק באתר"
    },
    {
      "id": 350,
      "name": "מגה",
      "address": "שילון 2, חיפה",
      "city": "חיפה",
      "type": "store",
      "chain": "other",
      "lat": 32.77336550474644,
      "lng": 35.01280148984364,
      "hours": "בדוק באתר"
    },
    {
      "id": 351,
      "name": "מגה",
      "address": "כיכר דיזינגוף 7, תל אביב",
      "city": "תל אביב",
      "type": "store",
      "chain": "other",
      "lat": 32.078131,
      "lng": 34.773813,
      "hours": "בדוק באתר"
    },
    {
      "id": 352,
      "name": "מגה",
      "address": "שדרות מנחם בגין 44, כפר יונה",
      "city": "כפר יונה",
      "type": "store",
      "chain": "other",
      "lat": 32.312061,
      "lng": 34.936974,
      "hours": "בדוק באתר"
    },
    {
      "id": 353,
      "name": "מגה",
      "address": "בן גוריון פינת שלום עליכם, הוד השרון",
      "city": "הוד השרון",
      "type": "store",
      "chain": "other",
      "lat": 32.159116,
      "lng": 34.888363,
      "hours": "בדוק באתר"
    },
    {
      "id": 354,
      "name": "מגה",
      "address": "אבן גבירול 30, תל אביב",
      "city": "תל אביב",
      "type": "store",
      "chain": "other",
      "lat": 32.074974,
      "lng": 34.781798,
      "hours": "בדוק באתר"
    },
    {
      "id": 355,
      "name": "זול בשפע(לשעבר מגה) תל כביר - חוויה ואיכות בעיר-1228/96",
      "address": "גרינבאום 45, תל אביב",
      "city": "תל אביב",
      "type": "store",
      "chain": "other",
      "lat": 32.040333,
      "lng": 34.765443,
      "hours": "בדוק באתר"
    },
    {
      "id": 356,
      "name": "זול בשפע מרכז גולן רעננה",
      "address": "אחוזה 198 198, רעננה",
      "city": "רעננה",
      "type": "store",
      "chain": "other",
      "lat": 32.183026,
      "lng": 34.865724,
      "hours": "בדוק באתר"
    },
    {
      "id": 357,
      "name": "זול בשפע אלעד",
      "address": "בן זכאי 32 - אלעד 32, ראש העין",
      "city": "ראש העין",
      "type": "store",
      "chain": "other",
      "lat": 32.048358,
      "lng": 34.954711,
      "hours": "בדוק באתר"
    },
    {
      "id": 358,
      "name": "זול בשפע בית שמש",
      "address": "נחל שורק 23, בית שמש",
      "city": "בית שמש",
      "type": "store",
      "chain": "other",
      "lat": 31.715217,
      "lng": 34.990377,
      "hours": "בדוק באתר"
    },
    {
      "id": 359,
      "name": "זול בשפע לב הרצליה",
      "address": "בן גוריון 2 2, הרצליה",
      "city": "הרצליה",
      "type": "store",
      "chain": "other",
      "lat": 32.167231,
      "lng": 34.84244,
      "hours": "בדוק באתר"
    },
    {
      "id": 360,
      "name": "מגה",
      "address": "הרצל 28, פתח תקווה",
      "city": "פתח תקווה",
      "type": "store",
      "chain": "other",
      "lat": 32.085563,
      "lng": 34.88697,
      "hours": "בדוק באתר"
    },
    {
      "id": 361,
      "name": "מגה",
      "address": "חנה סנש 20, חיפה",
      "city": "חיפה",
      "type": "store",
      "chain": "other",
      "lat": 32.80171,
      "lng": 34.996179,
      "hours": "בדוק באתר"
    },
    {
      "id": 362,
      "name": "מגה",
      "address": "בני אפרים 209, תל אביב",
      "city": "תל אביב",
      "type": "store",
      "chain": "other",
      "lat": 32.111207,
      "lng": 34.816447,
      "hours": "בדוק באתר"
    },
    {
      "id": 363,
      "name": "מגה",
      "address": "שרת 6, כפר יונה",
      "city": "כפר יונה",
      "type": "store",
      "chain": "other",
      "lat": 32.317837,
      "lng": 34.93422,
      "hours": "בדוק באתר"
    },
    {
      "id": 364,
      "name": "מגה",
      "address": "הגליל 78, גני תקווה",
      "city": "גני תקווה",
      "type": "store",
      "chain": "other",
      "lat": 32.056882,
      "lng": 34.869227,
      "hours": "בדוק באתר"
    },
    {
      "id": 365,
      "name": "מגה",
      "address": "זבוטינסקי 65, ראשון לציון",
      "city": "ראשון לציון",
      "type": "store",
      "chain": "other",
      "lat": 31.967177,
      "lng": 34.799527,
      "hours": "בדוק באתר"
    },
    {
      "id": 366,
      "name": "מגה",
      "address": "שדרות הנשיא 134, חיפה",
      "city": "חיפה",
      "type": "store",
      "chain": "other",
      "lat": 32.803321,
      "lng": 34.986278,
      "hours": "בדוק באתר"
    },
    {
      "id": 367,
      "name": "מגה - צרכניה",
      "address": "שדרות הרצל 45, רמלה",
      "city": "רמלה",
      "type": "store",
      "chain": "other",
      "lat": 31.932334,
      "lng": 34.869026,
      "hours": "בדוק באתר"
    },
    {
      "id": 368,
      "name": "מגה",
      "address": "העצמאות 21, חדרה",
      "city": "חדרה",
      "type": "store",
      "chain": "other",
      "lat": 32.428987,
      "lng": 34.944423,
      "hours": "בדוק באתר"
    },
    {
      "id": 369,
      "name": "רשות מקומית - מוקד איסוף",
      "address": "סטרומה 1, בת ים",
      "city": "בת ים",
      "type": "store",
      "chain": "other",
      "lat": 32.004862,
      "lng": 34.750015,
      "hours": "בדוק באתר"
    },
    {
      "id": 370,
      "name": "רשות מקומית - מוקד איסוף",
      "address": "נורדאו 17, בת ים",
      "city": "בת ים",
      "type": "store",
      "chain": "other",
      "lat": 32.016221,
      "lng": 34.741267,
      "hours": "בדוק באתר"
    },
    {
      "id": 371,
      "name": "קרביץ",
      "address": "צומת גן שמואל, גן שמואל",
      "city": "גן שמואל",
      "type": "store",
      "chain": "other",
      "lat": 32.07736343539981,
      "lng": 34.854710316015584,
      "hours": "בדוק באתר"
    },
    {
      "id": 372,
      "name": "Collection Point",
      "address": "Unknown",
      "city": "Unknown",
      "type": "store",
      "chain": "other",
      "lat": 32.80641764451027,
      "lng": 35.255967830324096,
      "hours": "בדוק באתר"
    },
    {
      "id": 373,
      "name": "Collection Point",
      "address": "Unknown",
      "city": "Unknown",
      "type": "store",
      "chain": "other",
      "lat": 32.26710970130653,
      "lng": 35.00981447821318,
      "hours": "בדוק באתר"
    },
    {
      "id": 374,
      "name": "Collection Point",
      "address": "Unknown",
      "city": "Unknown",
      "type": "store",
      "chain": "other",
      "lat": 32.66726467743021,
      "lng": 35.2412592788869,
      "hours": "בדוק באתר"
    },
    {
      "id": 375,
      "name": "Collection Point",
      "address": "Unknown",
      "city": "Unknown",
      "type": "store",
      "chain": "other",
      "lat": 31.988145369564208,
      "lng": 34.91405671500731,
      "hours": "בדוק באתר"
    },
    {
      "id": 376,
      "name": "Collection Point",
      "address": "Unknown",
      "city": "Unknown",
      "type": "store",
      "chain": "other",
      "lat": 31.516526437496214,
      "lng": 34.589295474539995,
      "hours": "בדוק באתר"
    },
    {
      "id": 377,
      "name": "Collection Point",
      "address": "Unknown",
      "city": "Unknown",
      "type": "store",
      "chain": "other",
      "lat": 32.22853211132193,
      "lng": 34.94200115552215,
      "hours": "בדוק באתר"
    },
    {
      "id": 378,
      "name": "Collection Point",
      "address": "Unknown",
      "city": "Unknown",
      "type": "store",
      "chain": "other",
      "lat": 32.91756623925838,
      "lng": 35.30399153465325,
      "hours": "בדוק באתר"
    },
    {
      "id": 379,
      "name": "Collection Point",
      "address": "Unknown",
      "city": "Unknown",
      "type": "store",
      "chain": "other",
      "lat": 32.41476600309978,
      "lng": 35.04628664752545,
      "hours": "בדוק באתר"
    },
    {
      "id": 380,
      "name": "Collection Point",
      "address": "Unknown",
      "city": "Unknown",
      "type": "store",
      "chain": "other",
      "lat": 32.80601746935452,
      "lng": 35.16983152847648,
      "hours": "בדוק באתר"
    },
    {
      "id": 381,
      "name": "Collection Point",
      "address": "Unknown",
      "city": "Unknown",
      "type": "store",
      "chain": "other",
      "lat": 31.199512990572508,
      "lng": 35.364070308045434,
      "hours": "בדוק באתר"
    },
    {
      "id": 382,
      "name": "Collection Point",
      "address": "Unknown",
      "city": "Unknown",
      "type": "store",
      "chain": "other",
      "lat": 32.53422005796638,
      "lng": 35.14895476101575,
      "hours": "בדוק באתר"
    },
    {
      "id": 383,
      "name": "Collection Point",
      "address": "Unknown",
      "city": "Unknown",
      "type": "store",
      "chain": "other",
      "lat": 31.853606257076184,
      "lng": 35.21763092055484,
      "hours": "בדוק באתר"
    },
    {
      "id": 384,
      "name": "Collection Point",
      "address": "Unknown",
      "city": "Unknown",
      "type": "store",
      "chain": "other",
      "lat": 31.85370650074378,
      "lng": 35.21755581870699,
      "hours": "בדוק באתר"
    },
    {
      "id": 385,
      "name": "Collection Point",
      "address": "Unknown",
      "city": "Unknown",
      "type": "store",
      "chain": "other",
      "lat": 32.50227058996466,
      "lng": 34.92696224382717,
      "hours": "בדוק באתר"
    },
    {
      "id": 386,
      "name": "Collection Point",
      "address": "Unknown",
      "city": "Unknown",
      "type": "store",
      "chain": "other",
      "lat": 32.026398705244105,
      "lng": 34.90094725918319,
      "hours": "בדוק באתר"
    },
    {
      "id": 387,
      "name": "Collection Point",
      "address": "Unknown",
      "city": "Unknown",
      "type": "store",
      "chain": "other",
      "lat": 32.08632105402866,
      "lng": 34.979775474522995,
      "hours": "בדוק באתר"
    },
    {
      "id": 388,
      "name": "Collection Point",
      "address": "Unknown",
      "city": "Unknown",
      "type": "store",
      "chain": "other",
      "lat": 32.320881038556,
      "lng": 34.936350234787255,
      "hours": "בדוק באתר"
    },
    {
      "id": 389,
      "name": "Collection Point",
      "address": "Unknown",
      "city": "Unknown",
      "type": "store",
      "chain": "other",
      "lat": 32.112410259832544,
      "lng": 34.79581674383897,
      "hours": "בדוק באתר"
    },
    {
      "id": 390,
      "name": "Collection Point",
      "address": "Unknown",
      "city": "Unknown",
      "type": "store",
      "chain": "other",
      "lat": 31.23432964915084,
      "lng": 34.79938394571288,
      "hours": "בדוק באתר"
    },
    {
      "id": 391,
      "name": "Collection Point",
      "address": "Unknown",
      "city": "Unknown",
      "type": "store",
      "chain": "other",
      "lat": 32.811985144552274,
      "lng": 35.07188237634881,
      "hours": "בדוק באתר"
    },
    {
      "id": 392,
      "name": "Collection Point",
      "address": "Unknown",
      "city": "Unknown",
      "type": "store",
      "chain": "other",
      "lat": 32.756845274189274,
      "lng": 35.33314114503417,
      "hours": "בדוק באתר"
    },